[
  {
    "title": "Mystery of the Mayan Medallion",
    "date": "May 9",
    "time": "All Day",
    "location": "CRANBROOK SCIENCE MUSEUM",
    "url": "https://littleguidedetroit.com/event/mystery-of-the-mayan-medallion/2026-05-09/",
    "site": "Detroit Metro",
    "parsed_date": "2026-05-09",
    "lat": 42.5023,
    "lon": -83.2668,
    "category": "outdoor"
  },
  {
    "title": "Michigan Humane's Tailgate",
    "date": "May 9",
    "time": "7:30 AM - 2:00 PM",
    "location": "Roosevelt Park",
    "url": "https://littleguidedetroit.com/event/michigan-humanes-tailgate/",
    "site": "Detroit Metro",
    "parsed_date": "2026-05-09",
    "lat": 42.3736,
    "lon": -83.0619,
    "category": "outdoor"
  },
  {
    "title": "World Migratory Bird Day at Fenner",
    "date": "May 9",
    "time": "8:00 AM - 8:00 PM",
    "location": "Fenner Nature Center",
    "url": "https://littleguidedetroit.com/event/world-migratory-bird-day-at-fenner/",
    "site": "Detroit Metro",
    "parsed_date": "2026-05-09",
    "lat": 42.7369,
    "lon": -84.4104,
    "category": "outdoor"
  },
  {
    "title": "Blake's In Bloom",
    "date": "May 9",
    "time": "8:00 AM - 5:00 PM",
    "location": "Blake Farms and Apple Orchard",
    "url": "https://littleguidedetroit.com/event/blakes-in-bloom/2026-05-09/",
    "site": "Detroit Metro",
    "parsed_date": "2026-05-09",
    "lat": 42.448,
    "lon": -83.1265,
    "category": "outdoor"
  },
  {
    "title": "Howell Touch a Truck",
    "date": "May 9",
    "time": "9:00 AM - 2:00 PM",
    "location": "Kensington Valley Outlets",
    "url": "https://littleguidedetroit.com/event/howell-touch-a-truck/",
    "site": "Detroit Metro",
    "parsed_date": "2026-05-09",
    "lat": 42.6176,
    "lon": -83.7942,
    "category": "outdoor"
  },
  {
    "title": "Open Barn",
    "date": "May 9",
    "time": "9:00 AM - 4:00 PM",
    "location": "CHARLES L. BOWERS SCHOOL FARM",
    "url": "https://littleguidedetroit.com/event/open-barn-2/2026-05-09/",
    "site": "Detroit Metro",
    "parsed_date": "2026-05-09",
    "lat": 42.5948,
    "lon": -83.6945,
    "category": "outdoor"
  },
  {
    "title": "Family Fishing Frenzy",
    "date": "May 9",
    "time": "9:00 AM - 12:00 PM",
    "location": "HERITAGE PARK \u2013 CANTON",
    "url": "https://littleguidedetroit.com/event/family-fishing-frenzy/",
    "site": "Detroit Metro",
    "parsed_date": "2026-05-09",
    "lat": 42.3067,
    "lon": -83.4423,
    "category": "outdoor"
  },
  {
    "title": "Open Climb then Play",
    "date": "May 9",
    "time": "9:00 AM - 10:30 AM",
    "location": "Troy Gym \u2013 TG4",
    "url": "https://littleguidedetroit.com/event/open-climb-then-play/2026-05-09/",
    "site": "Detroit Metro",
    "parsed_date": "2026-05-09",
    "lat": 42.6064,
    "lon": -83.1498,
    "category": "outdoor"
  },
  {
    "title": "Theut's Flower Barn Tulip Festival",
    "date": "May 9",
    "time": "9:00 AM - 6:00 PM",
    "location": "Theut's Flower Barn",
    "url": "https://littleguidedetroit.com/event/theuts-flower-barn-tulip-festival/2026-05-09/",
    "site": "Detroit Metro",
    "parsed_date": "2026-05-09",
    "lat": 42.5157,
    "lon": -83.1529,
    "category": "festival"
  },
  {
    "title": "FREE Admission Waterloo Farm Museum",
    "date": "May 9",
    "time": "10:00 AM - 4:00 PM",
    "location": "Waterloo Farm and Dewey School Museum",
    "url": "https://littleguidedetroit.com/event/free-admission-waterloo-farm-museum/",
    "site": "Detroit Metro",
    "parsed_date": "2026-05-09",
    "lat": 42.7751,
    "lon": -83.5807,
    "category": "educational"
  },
  {
    "title": "Annual Garden Party in the Alley",
    "date": "May 9",
    "time": "10:00 AM - 5:00 PM",
    "location": "Downtown Howell",
    "url": "https://littleguidedetroit.com/event/annual-garden-party-in-the-alley/",
    "site": "Detroit Metro",
    "parsed_date": "2026-05-09",
    "lat": 42.6176,
    "lon": -83.7942,
    "category": "outdoor"
  },
  {
    "title": "ART BIRMINGHAM",
    "date": "May 9",
    "time": "10:00 AM - 6:00 PM",
    "location": "Shain Park",
    "url": "https://littleguidedetroit.com/event/art-birmingham/2026-05-09/",
    "site": "Detroit Metro",
    "parsed_date": "2026-05-09",
    "lat": 42.3314,
    "lon": -83.0458,
    "category": "outdoor"
  },
  {
    "title": "Mother's Day Wildflower Walk",
    "date": "May 9",
    "time": "10:00 AM - 2:00 PM",
    "location": "Kensington Nature Center",
    "url": "https://littleguidedetroit.com/event/mothers-day-wildflower-wal/",
    "site": "Detroit Metro",
    "parsed_date": "2026-05-09",
    "lat": 42.3314,
    "lon": -83.0458,
    "category": "outdoor"
  },
  {
    "title": "Lakeshore Stroll",
    "date": "May 9",
    "time": "10:00 AM - 12:00 PM",
    "location": "Lake Erie Marshlands Museum",
    "url": "https://littleguidedetroit.com/event/lakeshore-stroll/",
    "site": "Detroit Metro",
    "parsed_date": "2026-05-09",
    "lat": 42.3314,
    "lon": -83.0458,
    "category": "outdoor"
  },
  {
    "title": "Garden Club: Indian Springs",
    "date": "May 9",
    "time": "10:00 AM - 12:00 PM",
    "location": "Indian Springs Environmental Discovery Center",
    "url": "https://littleguidedetroit.com/event/garden-club-indian-springs/2026-05-09/",
    "site": "Detroit Metro",
    "parsed_date": "2026-05-09",
    "lat": 42.3314,
    "lon": -83.0458,
    "category": "outdoor"
  },
  {
    "title": "Project Kidsight Vision Screening",
    "date": "May 9",
    "time": "10:00 AM - 12:00 PM",
    "location": "BALDWIN PUBLIC LIBRARY",
    "url": "https://littleguidedetroit.com/event/project-kidsight-vision-screening-2/",
    "site": "Detroit Metro",
    "parsed_date": "2026-05-09",
    "lat": 42.3314,
    "lon": -83.0458,
    "category": "outdoor"
  },
  {
    "title": "Mother's Day Mini-Golf Weekend",
    "date": "May 9",
    "time": "10:00 AM - 5:00 PM",
    "location": "CRANBROOK ART MUSEUM",
    "url": "https://littleguidedetroit.com/event/mothers-day-mini-golf-weekend/2026-05-09/",
    "site": "Detroit Metro",
    "parsed_date": "2026-05-09",
    "lat": 42.3314,
    "lon": -83.0458,
    "category": "sport"
  },
  {
    "title": "Mother's Day Weekend Brunch",
    "date": "May 9",
    "time": "10:00 AM - 2:00 PM",
    "location": "Jojo's Shake Bar",
    "url": "https://littleguidedetroit.com/event/mothers-day-weekend-brunch/2026-05-09/",
    "site": "Detroit Metro",
    "parsed_date": "2026-05-09",
    "lat": 42.3314,
    "lon": -83.0458,
    "category": "sport"
  },
  {
    "title": "May LEGO Club",
    "date": "May 9",
    "time": "10:00 AM - 11:30 AM",
    "location": "Sloan Museum of Discovery",
    "url": "https://littleguidedetroit.com/event/may-lego-club/",
    "site": "Detroit Metro",
    "parsed_date": "2026-05-09",
    "lat": 42.3314,
    "lon": -83.0458,
    "category": "outdoor"
  },
  {
    "title": "Baby Week Celebration with a Free Class",
    "date": "May 9",
    "time": "10:45 AM - 11:30 AM",
    "location": "GYMBOREE PLAY & MUSIC \u2013 ROCHESTER HILLS",
    "url": "https://littleguidedetroit.com/event/baby-week-celebration-with-a-free-class/2026-05-09/",
    "site": "Detroit Metro",
    "parsed_date": "2026-05-09",
    "lat": 42.6984,
    "lon": -83.1348,
    "category": "festival"
  },
  {
    "title": "Family Day",
    "date": "May 9",
    "time": "11:00 AM - 3:00 PM",
    "location": "Museum of Contemporary Art Detroit (MOCAD)",
    "url": "https://littleguidedetroit.com/event/family-day/2026-05-09/",
    "site": "Detroit Metro",
    "parsed_date": "2026-05-09",
    "lat": 42.3314,
    "lon": -83.0458,
    "category": "outdoor"
  },
  {
    "title": "Lost Lake Open House",
    "date": "May 9",
    "time": "12:00 PM - 3:00 PM",
    "location": "LOST LAKE NATURE PARK",
    "url": "https://littleguidedetroit.com/event/lost-lake-open-house-2/",
    "site": "Detroit Metro",
    "parsed_date": "2026-05-09",
    "lat": 42.3314,
    "lon": -83.0458,
    "category": "free"
  },
  {
    "title": "Weekend Hayrides",
    "date": "May 9",
    "time": "12:00 PM - 4:00 PM",
    "location": "KENSINGTON METRO PARK FARM CENTER",
    "url": "https://littleguidedetroit.com/event/weekend-hayrides-2/2026-05-09/",
    "site": "Detroit Metro",
    "parsed_date": "2026-05-09",
    "lat": 42.4914,
    "lon": -83.0936,
    "category": "outdoor"
  },
  {
    "title": "Talkin' About Series",
    "date": "May 9",
    "time": "1:00 PM - 2:00 PM",
    "location": "Oakwoods Metropark Nature Center",
    "url": "https://littleguidedetroit.com/event/talkin-about-series-2/2026-05-09/",
    "site": "Detroit Metro",
    "parsed_date": "2026-05-09",
    "lat": 42.3314,
    "lon": -83.0458,
    "category": "outdoor"
  },
  {
    "title": "Kids Outdoor Craft Hour",
    "date": "May 9",
    "time": "1:00 PM - 2:00 PM",
    "location": "Stony Creek Nature Center",
    "url": "https://littleguidedetroit.com/event/kids-outdoor-craft-hour-2/",
    "site": "Detroit Metro",
    "parsed_date": "2026-05-09",
    "lat": 42.3314,
    "lon": -83.0458,
    "category": "outdoor"
  },
  {
    "title": "MILK & MEET",
    "date": "May 9",
    "time": "1:00 PM - 1:30 PM",
    "location": "MSU Tollgate Farm",
    "url": "https://littleguidedetroit.com/event/milk-meet/2026-05-09/1/",
    "site": "Detroit Metro",
    "parsed_date": "2026-05-09",
    "lat": 42.7165,
    "lon": -84.4987,
    "category": "outdoor"
  },
  {
    "title": "Magic: the Gathering Game Day",
    "date": "May 9",
    "time": "2:00 PM - 4:00 PM",
    "location": "Henry Ford Centennial Library",
    "url": "https://littleguidedetroit.com/event/magic-the-gathering-game-day/2026-05-09/",
    "site": "Detroit Metro",
    "parsed_date": "2026-05-09",
    "lat": 42.3314,
    "lon": -83.0458,
    "category": "outdoor"
  },
  {
    "title": "Drop-in Mother's Day Cards",
    "date": "May 9",
    "time": "2:00 PM - 4:00 PM",
    "location": "Troy Public Library",
    "url": "https://littleguidedetroit.com/event/drop-in-mothers-day-cards/",
    "site": "Detroit Metro",
    "parsed_date": "2026-05-09",
    "lat": 42.6064,
    "lon": -83.1498,
    "category": "outdoor"
  },
  {
    "title": "Kids Safety Day",
    "date": "May 9",
    "time": "2:00 PM - 5:00 PM",
    "location": "Tattan Park",
    "url": "https://littleguidedetroit.com/event/kids-safety-day/",
    "site": "Detroit Metro",
    "parsed_date": "2026-05-09",
    "lat": 42.3314,
    "lon": -83.0458,
    "category": "outdoor"
  },
  {
    "title": "Owl Encounters",
    "date": "May 9",
    "time": "3:00 PM - 4:00 PM",
    "location": "STAGE NATURE CENTER",
    "url": "https://littleguidedetroit.com/event/owl-encounters/2026-05-09/",
    "site": "Detroit Metro",
    "parsed_date": "2026-05-09",
    "lat": 42.3314,
    "lon": -83.0458,
    "category": "outdoor"
  },
  {
    "title": "Highland Park Fire Open House",
    "date": "May 9",
    "time": "4:30 PM - 7:00 PM",
    "location": "Highland Park Fire Department",
    "url": "https://littleguidedetroit.com/event/highland-park-fire-open-house/",
    "site": "Detroit Metro",
    "parsed_date": "2026-05-09",
    "lat": 42.5875,
    "lon": -83.381,
    "category": "free"
  },
  {
    "title": "Date Night: Mother's Day Gift Making",
    "date": "May 9",
    "time": "5:30 PM - 8:30 PM",
    "location": "Kidcreate Studio \u2013 Wixom",
    "url": "https://littleguidedetroit.com/event/date-night-mothers-day-gift-making/",
    "site": "Detroit Metro",
    "parsed_date": "2026-05-09",
    "lat": 42.5075,
    "lon": -83.455,
    "category": "outdoor"
  },
  {
    "title": "Nerf Night",
    "date": "May 9",
    "time": "5:30 PM - 8:30 PM",
    "location": "Michigan Academy of Gymnastics (Westland)",
    "url": "https://littleguidedetroit.com/event/nerf-night/",
    "site": "Detroit Metro",
    "parsed_date": "2026-05-09",
    "lat": 42.3242,
    "lon": -83.4001,
    "category": "outdoor"
  },
  {
    "title": "Spring Fling",
    "date": "May 9",
    "time": "6:00 PM - 8:00 PM",
    "location": "SUMMIT CANTON",
    "url": "https://littleguidedetroit.com/event/spring-fling/",
    "site": "Detroit Metro",
    "parsed_date": "2026-05-09",
    "lat": 42.3067,
    "lon": -83.4423,
    "category": "outdoor"
  },
  {
    "title": "Mother and Son Dino Dig Adventure",
    "date": "May 9",
    "time": "6:00 PM - 8:00 PM",
    "location": "Dodge Park",
    "url": "https://littleguidedetroit.com/event/mother-and-son-dino-dig-adventure/",
    "site": "Detroit Metro",
    "parsed_date": "2026-05-09",
    "lat": 42.3314,
    "lon": -83.0458,
    "category": "outdoor"
  },
  {
    "title": "MILK & MEET",
    "date": "May 9",
    "time": "6:00 PM - 6:30 PM",
    "location": "MSU Tollgate Farm",
    "url": "https://littleguidedetroit.com/event/milk-meet/2026-05-09/2/",
    "site": "Detroit Metro",
    "parsed_date": "2026-05-09",
    "lat": 42.7165,
    "lon": -84.4987,
    "category": "outdoor"
  },
  {
    "title": "Kids Night Out",
    "date": "May 9",
    "time": "6:30 PM - 9:30 PM",
    "location": "Troy Gym \u2013 TG1",
    "url": "https://littleguidedetroit.com/event/kids-night-out/2026-05-09/",
    "site": "Detroit Metro",
    "parsed_date": "2026-05-09",
    "lat": 42.6064,
    "lon": -83.1498,
    "category": "outdoor"
  },
  {
    "title": "GRAND RAPIDS LANTERN FESTIVAL",
    "date": "May 9",
    "time": "7:30 PM - 11:30 PM",
    "location": "John Ball Zoo",
    "url": "https://littleguidedetroit.com/event/grand-rapids-lantern-festival/2026-05-09/",
    "site": "Detroit Metro",
    "parsed_date": "2026-05-09",
    "lat": 42.9626,
    "lon": -85.6669,
    "category": "festival"
  },
  {
    "title": "Mystery of the Mayan Medallion",
    "date": "May 10",
    "time": "All Day",
    "location": "CRANBROOK SCIENCE MUSEUM",
    "url": "https://littleguidedetroit.com/event/mystery-of-the-mayan-medallion/2026-05-10/",
    "site": "Detroit Metro",
    "parsed_date": "2026-05-10",
    "lat": 42.5023,
    "lon": -83.2668,
    "category": "outdoor"
  },
  {
    "title": "Royal Oak in Bloom",
    "date": "May 10",
    "time": "7:00 AM - 2:00 PM",
    "location": "Downtown Royal Oak",
    "url": "https://littleguidedetroit.com/event/royal-oak-in-bloom/",
    "site": "Detroit Metro",
    "parsed_date": "2026-05-10",
    "lat": 42.4894,
    "lon": -83.1446,
    "category": "outdoor"
  },
  {
    "title": "Mother's Day Brunch",
    "date": "May 10",
    "time": "9:00 AM - 1:30 PM",
    "location": "EDSEL AND ELEANOR FORD HOUSE",
    "url": "https://littleguidedetroit.com/event/mothers-day-brunch/",
    "site": "Detroit Metro",
    "parsed_date": "2026-05-10",
    "lat": 42.3314,
    "lon": -83.0458,
    "category": "sport"
  },
  {
    "title": "Birmingham Farmers Market",
    "date": "May 10",
    "time": "9:00 AM - 2:00 PM",
    "location": "Public Parking Lot 6",
    "url": "https://littleguidedetroit.com/event/birmingham-farmers-market/2026-05-10/",
    "site": "Detroit Metro",
    "parsed_date": "2026-05-10",
    "lat": 42.3314,
    "lon": -83.0458,
    "category": "outdoor"
  },
  {
    "title": "Mother's Day at Just Play",
    "date": "May 10",
    "time": "9:00 AM - 8:00 PM",
    "location": "Just Play",
    "url": "https://littleguidedetroit.com/event/mothers-day-at-just-play/",
    "site": "Detroit Metro",
    "parsed_date": "2026-05-10",
    "lat": 42.3314,
    "lon": -83.0458,
    "category": "outdoor"
  },
  {
    "title": "Theut's Flower Barn Tulip Festival",
    "date": "May 10",
    "time": "9:00 AM - 6:00 PM",
    "location": "Theut's Flower Barn",
    "url": "https://littleguidedetroit.com/event/theuts-flower-barn-tulip-festival/2026-05-10/",
    "site": "Detroit Metro",
    "parsed_date": "2026-05-10",
    "lat": 42.5157,
    "lon": -83.1529,
    "category": "festival"
  },
  {
    "title": "ART BIRMINGHAM",
    "date": "May 10",
    "time": "10:00 AM - 5:00 PM",
    "location": "Shain Park",
    "url": "https://littleguidedetroit.com/event/art-birmingham/2026-05-10/",
    "site": "Detroit Metro",
    "parsed_date": "2026-05-10",
    "lat": 42.3314,
    "lon": -83.0458,
    "category": "outdoor"
  },
  {
    "title": "Walk-A-Mom",
    "date": "May 10",
    "time": "10:00 AM - 4:00 PM",
    "location": "Stony Creek Nature Center",
    "url": "https://littleguidedetroit.com/event/walk-a-mom/",
    "site": "Detroit Metro",
    "parsed_date": "2026-05-10",
    "lat": 42.3314,
    "lon": -83.0458,
    "category": "outdoor"
  },
  {
    "title": "Brunch with the Babies",
    "date": "May 10",
    "time": "10:00 AM - 11:30 AM",
    "location": "Wolcott Mill Farm Center",
    "url": "https://littleguidedetroit.com/event/brunch-with-the-babies/",
    "site": "Detroit Metro",
    "parsed_date": "2026-05-10",
    "lat": 42.3314,
    "lon": -83.0458,
    "category": "sport"
  },
  {
    "title": "Mother's Day Mini-Golf Weekend",
    "date": "May 10",
    "time": "10:00 AM - 5:00 PM",
    "location": "CRANBROOK ART MUSEUM",
    "url": "https://littleguidedetroit.com/event/mothers-day-mini-golf-weekend/2026-05-10/",
    "site": "Detroit Metro",
    "parsed_date": "2026-05-10",
    "lat": 42.3314,
    "lon": -83.0458,
    "category": "sport"
  },
  {
    "title": "Mothers Day Brunch",
    "date": "May 10",
    "time": "10:00 AM - 1:00 PM",
    "location": "Blake's Backyard",
    "url": "https://littleguidedetroit.com/event/mothers-day-brunch-2/",
    "site": "Detroit Metro",
    "parsed_date": "2026-05-10",
    "lat": 42.3314,
    "lon": -83.0458,
    "category": "sport"
  },
  {
    "title": "Mother's Day Weekend Brunch",
    "date": "May 10",
    "time": "10:00 AM - 2:00 PM",
    "location": "Jojo's Shake Bar",
    "url": "https://littleguidedetroit.com/event/mothers-day-weekend-brunch/2026-05-10/",
    "site": "Detroit Metro",
    "parsed_date": "2026-05-10",
    "lat": 42.3314,
    "lon": -83.0458,
    "category": "sport"
  },
  {
    "title": "Mother's Day at Kona Grill",
    "date": "May 10",
    "time": "10:00 AM - 2:00 PM",
    "location": "Kona Grill",
    "url": "https://littleguidedetroit.com/event/mothers-day-at-kona-grill/",
    "site": "Detroit Metro",
    "parsed_date": "2026-05-10",
    "lat": 42.3314,
    "lon": -83.0458,
    "category": "outdoor"
  },
  {
    "title": "Mother's Day in Nature",
    "date": "May 10",
    "time": "10:00 AM - 5:00 PM",
    "location": "Howell Nature Center",
    "url": "https://littleguidedetroit.com/event/mothers-day-in-nature/",
    "site": "Detroit Metro",
    "parsed_date": "2026-05-10",
    "lat": 42.6176,
    "lon": -83.7942,
    "category": "nature"
  },
  {
    "title": "Mother's Day Brunch",
    "date": "May 10",
    "time": "10:00 AM - 3:00 PM",
    "location": "The Department at Hudson's",
    "url": "https://littleguidedetroit.com/event/mothers-day-brunch-3/",
    "site": "Detroit Metro",
    "parsed_date": "2026-05-10",
    "lat": 42.3314,
    "lon": -83.0458,
    "category": "sport"
  },
  {
    "title": "Mothers FREE Admission at Cranbrook",
    "date": "May 10",
    "time": "12:00 PM - 4:00 PM",
    "location": "Cranbrook Institute of Science",
    "url": "https://littleguidedetroit.com/event/mothers-free-admission-at-cranbrook/",
    "site": "Detroit Metro",
    "parsed_date": "2026-05-10",
    "lat": 42.3314,
    "lon": -83.0458,
    "category": "free"
  },
  {
    "title": "Weekend Hayrides",
    "date": "May 10",
    "time": "12:00 PM - 4:00 PM",
    "location": "KENSINGTON METRO PARK FARM CENTER",
    "url": "https://littleguidedetroit.com/event/weekend-hayrides-2/2026-05-10/",
    "site": "Detroit Metro",
    "parsed_date": "2026-05-10",
    "lat": 42.4914,
    "lon": -83.0936,
    "category": "outdoor"
  },
  {
    "title": "Festa Della Mamma",
    "date": "May 10",
    "time": "12:00 PM - 7:30 PM",
    "location": "Cafe Cortina",
    "url": "https://littleguidedetroit.com/event/festa-della-mamma/",
    "site": "Detroit Metro",
    "parsed_date": "2026-05-10",
    "lat": 42.3314,
    "lon": -83.0458,
    "category": "outdoor"
  },
  {
    "title": "Lansing Spring Carnival",
    "date": "May 10",
    "time": "1:00 PM - 9:00 PM",
    "location": "Abundant Grace Faith Church",
    "url": "https://littleguidedetroit.com/event/lansing-spring-carnival/2026-05-10/",
    "site": "Detroit Metro",
    "parsed_date": "2026-05-10",
    "lat": 42.7284,
    "lon": -84.5454,
    "category": "festival"
  },
  {
    "title": "Feeding Time in the Nature Center",
    "date": "May 10",
    "time": "1:00 PM - 2:00 PM",
    "location": "Stony Creek Nature Center",
    "url": "https://littleguidedetroit.com/event/feeding-time-in-the-nature-center/2026-05-10/",
    "site": "Detroit Metro",
    "parsed_date": "2026-05-10",
    "lat": 42.3314,
    "lon": -83.0458,
    "category": "nature"
  },
  {
    "title": "Let's Dance! Detroit Ballroom Dance Class for Kids and Parents",
    "date": "May 10",
    "time": "1:30 PM - 3:00 PM",
    "location": "DETROIT PUBLIC LIBRARY \u2013 Main",
    "url": "https://littleguidedetroit.com/event/lets-dance-detroit-ballroom-dance-class-for-kids-and-parents/2026-05-10/",
    "site": "Detroit Metro",
    "parsed_date": "2026-05-10",
    "lat": 42.3314,
    "lon": -83.0458,
    "category": "educational"
  },
  {
    "title": "Mother's Day Meander",
    "date": "May 10",
    "time": "2:00 PM - 4:00 PM",
    "location": "Lake Erie Marshlands Museum",
    "url": "https://littleguidedetroit.com/event/mothers-day-meander/",
    "site": "Detroit Metro",
    "parsed_date": "2026-05-10",
    "lat": 42.3314,
    "lon": -83.0458,
    "category": "outdoor"
  },
  {
    "title": "Mother's Day Tea",
    "date": "May 10",
    "time": "2:00 PM - 4:00 PM",
    "location": "St. John's Resort",
    "url": "https://littleguidedetroit.com/event/mothers-day-tea-2/",
    "site": "Detroit Metro",
    "parsed_date": "2026-05-10",
    "lat": 42.3314,
    "lon": -83.0458,
    "category": "outdoor"
  },
  {
    "title": "GRAND RAPIDS LANTERN FESTIVAL",
    "date": "May 10",
    "time": "7:30 PM - 11:30 PM",
    "location": "John Ball Zoo",
    "url": "https://littleguidedetroit.com/event/grand-rapids-lantern-festival/2026-05-10/",
    "site": "Detroit Metro",
    "parsed_date": "2026-05-10",
    "lat": 42.9626,
    "lon": -85.6669,
    "category": "festival"
  },
  {
    "title": "Sensory-Friendly Hours at the Zoo",
    "date": "May 11",
    "time": "9:00 AM - 12:00 PM",
    "location": "Detroit Zoo",
    "url": "https://littleguidedetroit.com/event/sensory-friendly-hours-at-the-zoo/2026-05-11/",
    "site": "Detroit Metro",
    "parsed_date": "2026-05-11",
    "lat": 42.4753,
    "lon": -83.3901,
    "category": "nature"
  },
  {
    "title": "\"The Who's Tommy\"",
    "date": "Dates vary between May 8, 2026 - May 10, 2026",
    "time": "All day",
    "location": "Interlochen Center for the Arts",
    "url": "https://www.traversecity.com/event-detail/the-who%e2%80%99s-tommy/23867/",
    "site": "Traverse City",
    "parsed_date": "unknown",
    "lat": 44.606,
    "lon": -85.628,
    "category": "outdoor"
  },
  {
    "title": "Leelanau Vintner's Celebration",
    "date": "May 9, 2026",
    "time": "All day",
    "location": "Showroom",
    "url": "https://www.traversecity.com/event-detail/leelanau-vintners-celebration/25544/",
    "site": "Traverse City",
    "parsed_date": "2026-05-09",
    "lat": 44.7631,
    "lon": -85.6206,
    "category": "festival"
  },
  {
    "title": "Live Music with Andy McQuillen at TC Whiskey -- The Stillhouse",
    "date": "May 9, 2026",
    "time": "All day",
    "location": "Traverse City Whiskey Co.",
    "url": "https://www.traversecity.com/event-detail/live-music-with-andy-mcquillen-at-tc-whiskey-the-stillhouse/25665/",
    "site": "Traverse City",
    "parsed_date": "2026-05-09",
    "lat": 44.7631,
    "lon": -85.6206,
    "category": "outdoor"
  },
  {
    "title": "Old Town Playhouse presents - Dueling Pianos",
    "date": "May 9, 2026",
    "time": "All day",
    "location": "Hotel Indigo",
    "url": "https://www.traversecity.com/event-detail/old-town-playhouse-presents-dueling-pianos/25144/",
    "site": "Traverse City",
    "parsed_date": "2026-05-09",
    "lat": 44.7631,
    "lon": -85.6206,
    "category": "outdoor"
  },
  {
    "title": "Tuscan Bistro Nights",
    "date": "Dates vary between May 6, 2026 - May 9, 2026",
    "time": "All day",
    "location": "The Grille at Grand Traverse Resort and Spa",
    "url": "https://www.traversecity.com/event-detail/tuscan-bistro-nights/25603/",
    "site": "Traverse City",
    "parsed_date": "unknown",
    "lat": 44.7631,
    "lon": -85.6206,
    "category": "outdoor"
  },
  {
    "title": "Traverse City Uncorked 2026",
    "date": "Recurring daily until May 10, 2026",
    "time": "All day",
    "location": "Traverse Wine Coast Wineries",
    "url": "https://www.traversecity.com/event-detail/traverse-city-uncorked-2026/23740/",
    "site": "Traverse City",
    "parsed_date": "unknown",
    "lat": 44.78,
    "lon": -85.59,
    "category": "outdoor"
  },
  {
    "title": "2026 Organic Plant Sale",
    "date": "Recurring daily until May 31, 2026",
    "time": "All day",
    "location": "Lakeview Hill Farm",
    "url": "https://www.traversecity.com/event-detail/2026-organic-plant-sale/25861/",
    "site": "Traverse City",
    "parsed_date": "unknown",
    "lat": 44.7631,
    "lon": -85.6206,
    "category": "outdoor"
  },
  {
    "title": "Cosmo St. Charles is Dead and Someone in this Room Killed Him",
    "date": "Dates vary between May 8, 2026 - May 10, 2026",
    "time": "All day",
    "location": "Old Town Playhouse",
    "url": "https://www.traversecity.com/event-detail/cosmo-st-charles-is-dead-and-someone-in-this-room-killed-him/25529/",
    "site": "Traverse City",
    "parsed_date": "unknown",
    "lat": 44.7631,
    "lon": -85.6206,
    "category": "outdoor"
  },
  {
    "title": "Crystal Rush Mountain Bike Race",
    "date": "May 9, 2026",
    "time": "All day",
    "location": "Crystal Mountain",
    "url": "https://www.traversecity.com/event-detail/crystal-rush-mountain-bike-race/25699/",
    "site": "Traverse City",
    "parsed_date": "2026-05-09",
    "lat": 44.7631,
    "lon": -85.6206,
    "category": "outdoor"
  },
  {
    "title": "Free Family Fun: Make & Take Citronella Plants",
    "date": "May 9, 2026",
    "time": "All day",
    "location": "The Botanic Garden at Historic Barns Park",
    "url": "https://www.traversecity.com/event-detail/free-family-fun%3a-make-%26-take-citronella-plants/25827/",
    "site": "Traverse City",
    "parsed_date": "2026-05-09",
    "lat": 44.7631,
    "lon": -85.6206,
    "category": "free"
  },
  {
    "title": "Live At The Bay: Joshua Davis",
    "date": "May 9, 2026",
    "time": "All day",
    "location": "The Bay Community Theater",
    "url": "https://www.traversecity.com/event-detail/live-at-the-bay%3a-joshua-davis/25828/",
    "site": "Traverse City",
    "parsed_date": "2026-05-09",
    "lat": 44.7631,
    "lon": -85.6206,
    "category": "outdoor"
  },
  {
    "title": "Live Music Ft. Tower of Bauer",
    "date": "May 9, 2026",
    "time": "All day",
    "location": "Waterfall",
    "url": "https://www.traversecity.com/event-detail/live-music-ft-tower-of-bauer/25745/",
    "site": "Traverse City",
    "parsed_date": "2026-05-09",
    "lat": 44.7631,
    "lon": -85.6206,
    "category": "outdoor"
  },
  {
    "title": "Live Music at Iron Fish Distillery",
    "date": "Recurring weekly on Friday, Saturday",
    "time": "All day",
    "location": "Iron Fish Distillery",
    "url": "https://www.traversecity.com/event-detail/live-music-at-iron-fish-distillery/24957/",
    "site": "Traverse City",
    "parsed_date": "unknown",
    "lat": 44.7631,
    "lon": -85.6206,
    "category": "outdoor"
  },
  {
    "title": "Mother's Day on the Farm",
    "date": "May 9, 2026",
    "time": "All day",
    "location": "Moondance Flower Farm",
    "url": "https://www.traversecity.com/event-detail/mothers-day-on-the-farm/25698/",
    "site": "Traverse City",
    "parsed_date": "2026-05-09",
    "lat": 44.7631,
    "lon": -85.6206,
    "category": "outdoor"
  },
  {
    "title": "Ramp Fest",
    "date": "May 9, 2026",
    "time": "All day",
    "location": "The Foxglove Farm",
    "url": "https://www.traversecity.com/event-detail/ramp-fest/25772/",
    "site": "Traverse City",
    "parsed_date": "2026-05-09",
    "lat": 44.7631,
    "lon": -85.6206,
    "category": "outdoor"
  },
  {
    "title": "Grand Haven Farmers Market",
    "date": "May 9, 2026",
    "time": "8:00 am - 1:00 pm",
    "location": "Chinook Pier, 301 N. Harbor Dr., Grand Haven",
    "url": "https://visitgrandhaven.com/events/grand-haven-farmers-market-2/grand-haven-farmers-market-2026-05-09/",
    "site": "Grand Haven",
    "parsed_date": "2026-05-09",
    "lat": 43.065,
    "lon": -86.227,
    "category": "outdoor"
  },
  {
    "title": "Tote Club Days",
    "date": "May 9, 2026",
    "time": "10:00 am - 8:00 pm",
    "location": "Downtown Grand Haven, 101 Washington Avenue",
    "url": "https://visitgrandhaven.com/events/tote-club-days-2/",
    "site": "Grand Haven",
    "parsed_date": "2026-05-09",
    "lat": 43.065,
    "lon": -86.227,
    "category": "outdoor"
  },
  {
    "title": "Mother's Day Luncheon",
    "date": "May 9, 2026",
    "time": "12:00 pm - 2:00 pm",
    "location": "Coopersville Farm Museum, 375 Main Street, Coopersville",
    "url": "https://visitgrandhaven.com/events/mothers-day-luncheon/",
    "site": "Grand Haven",
    "parsed_date": "2026-05-09",
    "lat": 43.065,
    "lon": -86.227,
    "category": "outdoor"
  },
  {
    "title": "Musical Fountain Testing Nights",
    "date": "May 15, 2026",
    "time": "9:30 pm - 11:00 pm",
    "location": "Lynne Sherwood Waterfront Stadium, 1 N. Harbor Drive, Grand Haven",
    "url": "https://visitgrandhaven.com/events/musical-fountain-testing-nights/",
    "site": "Grand Haven",
    "parsed_date": "2026-05-15",
    "lat": 43.065,
    "lon": -86.227,
    "category": "outdoor"
  },
  {
    "title": "The Kite Festival at Grand Haven",
    "date": "May 16, 2026",
    "time": "10:00 am - 5:00 pm",
    "location": "Grand Haven State Park",
    "url": "https://visitgrandhaven.com/events/the-kite-festival-at-grand-haven/",
    "site": "Grand Haven",
    "parsed_date": "2026-05-16",
    "lat": 43.065,
    "lon": -86.227,
    "category": "festival"
  },
  {
    "title": "1st Annual Club Crawl Poker Run",
    "date": "May 16, 2026",
    "time": "2:00 pm - 7:00 pm",
    "location": "American Legion Post #28, 700 S Harbor Dr, Grand Haven",
    "url": "https://visitgrandhaven.com/events/1st-annual-club-crawl/",
    "site": "Grand Haven",
    "parsed_date": "2026-05-16",
    "lat": 43.065,
    "lon": -86.227,
    "category": "sport"
  },
  {
    "title": "Armed Services Marathon",
    "date": "May 17, 2026",
    "time": "7:00 am - 2:00 pm",
    "location": "Grand Haven High School Football Grounds, 17001 Ferris St, Grand Haven",
    "url": "https://visitgrandhaven.com/events/armed-services-marathon/",
    "site": "Grand Haven",
    "parsed_date": "2026-05-17",
    "lat": 43.065,
    "lon": -86.227,
    "category": "outdoor"
  },
  {
    "title": "Blood Drive - Spring Lake",
    "date": "May 21, 2026",
    "time": "1:00 pm - 5:30 pm",
    "location": "Spring Lake Presbyterian Church, 760 E. Savidge Street, Spring Lake",
    "url": "https://visitgrandhaven.com/events/blood-drive-spring-lake/",
    "site": "Grand Haven",
    "parsed_date": "2026-05-21",
    "lat": 43.065,
    "lon": -86.227,
    "category": "outdoor"
  },
  {
    "title": "Battle of the Creek Bands",
    "date": "May 15",
    "time": "All day",
    "location": "New Holland Brewing",
    "url": "https://www.battlecreekvisitors.org/event/battle-of-the-creek-bands/1166/",
    "site": "Battle Creek",
    "parsed_date": "2026-05-15",
    "lat": 42.3211,
    "lon": -85.1797,
    "category": "outdoor"
  },
  {
    "title": "Spring into the Arts",
    "date": "May 15",
    "time": "All day",
    "location": "",
    "url": "https://www.battlecreekvisitors.org/event/spring-into-the-arts/1204/",
    "site": "Battle Creek",
    "parsed_date": "2026-05-15",
    "lat": 42.3211,
    "lon": -85.1797,
    "category": "outdoor"
  },
  {
    "title": "Memorial Day Parade",
    "date": "May 25",
    "time": "All day",
    "location": "",
    "url": "https://www.battlecreekvisitors.org/event/memorial-day-parade/1250/",
    "site": "Battle Creek",
    "parsed_date": "2026-05-25",
    "lat": 42.3211,
    "lon": -85.1797,
    "category": "outdoor"
  },
  {
    "title": "Battle Creek Community Spelling Bee",
    "date": "Jun 06",
    "time": "All day",
    "location": "",
    "url": "https://www.battlecreekvisitors.org/event/battle-creek-community-spelling-bee/1201/",
    "site": "Battle Creek",
    "parsed_date": "2026-06-06",
    "lat": 42.3211,
    "lon": -85.1797,
    "category": "outdoor"
  },
  {
    "title": "TrailBlaze Family Adventure Day",
    "date": "Jun 06",
    "time": "All day",
    "location": "Calhoun County Trailway",
    "url": "https://www.battlecreekvisitors.org/event/trailblaze-family-adventure-day/1180/",
    "site": "Battle Creek",
    "parsed_date": "2026-06-06",
    "lat": 42.3211,
    "lon": -85.1797,
    "category": "nature"
  },
  {
    "title": "Corks & Crafts Tasting Event",
    "date": "May 09",
    "time": "All day",
    "location": "",
    "url": "https://www.battlecreekvisitors.org/event/corks-%26-crafts-tasting-event/1130/",
    "site": "Battle Creek",
    "parsed_date": "2026-05-09",
    "lat": 42.3211,
    "lon": -85.1797,
    "category": "outdoor"
  },
  {
    "title": "Corks & Crafts Tasting Event",
    "date": "May 09",
    "time": "All day",
    "location": "",
    "url": "https://www.battlecreekvisitors.org/event/corks-%26-crafts-tasting-event/1169/",
    "site": "Battle Creek",
    "parsed_date": "2026-05-09",
    "lat": 42.3211,
    "lon": -85.1797,
    "category": "outdoor"
  },
  {
    "title": "Marshall Museums Dollar Day",
    "date": "May 09",
    "time": "All day",
    "location": "",
    "url": "https://www.battlecreekvisitors.org/event/marshall-museums-dollar-day/1245/",
    "site": "Battle Creek",
    "parsed_date": "2026-05-09",
    "lat": 42.3211,
    "lon": -85.1797,
    "category": "educational"
  },
  {
    "title": "Mother's Day at Binder Park Zoo",
    "date": "May 10",
    "time": "All day",
    "location": "Binder Park Zoo",
    "url": "https://www.battlecreekvisitors.org/event/mother%e2%80%99s-day-at-binder-park-zoo/1188/",
    "site": "Battle Creek",
    "parsed_date": "2026-05-10",
    "lat": 42.3211,
    "lon": -85.1797,
    "category": "nature"
  },
  {
    "title": "Wednesday Night Cruise-ins",
    "date": "May 13",
    "time": "All day",
    "location": "",
    "url": "https://www.battlecreekvisitors.org/event/wednesday-night-cruise-ins/1129/",
    "site": "Battle Creek",
    "parsed_date": "2026-05-13",
    "lat": 42.3211,
    "lon": -85.1797,
    "category": "outdoor"
  },
  {
    "title": "Brooks Nature Area: World Migratory Bird Hike Day",
    "date": "May 09",
    "time": "All day",
    "location": "Brooks Nature Area",
    "url": "https://www.battlecreekvisitors.org/event/brooks-nature-area%3a-world-migratory-bird-hike-day/1246/",
    "site": "Battle Creek",
    "parsed_date": "2026-05-09",
    "lat": 42.3211,
    "lon": -85.1797,
    "category": "nature"
  },
  {
    "title": "Chamber 101",
    "date": "2026-05-13",
    "time": "All day",
    "location": "Grand Rapids Chamber, 250 Monroe Ave",
    "url": "https://grandrapids.org/event/chamber-101-5-13/",
    "site": "Grand Rapids",
    "parsed_date": "2026-05-13",
    "lat": 42.9634,
    "lon": -85.6681,
    "category": "outdoor"
  },
  {
    "title": "Create Great Leaders Annual Party",
    "date": "2026-05-15",
    "time": "All day",
    "location": "Midtown GR, 123 Ionia Ave. SW",
    "url": "https://grandrapids.org/event/create-great-leaders-annual-party-5-15/",
    "site": "Grand Rapids",
    "parsed_date": "2026-05-15",
    "lat": 42.9634,
    "lon": -85.6681,
    "category": "outdoor"
  },
  {
    "title": "Grand Rapids Candidate Forum",
    "date": "2026-05-18",
    "time": "All day",
    "location": "Grand Rapids Chamber, 250 Monroe Ave",
    "url": "https://grandrapids.org/event/grand-rapids-candidate-forum/",
    "site": "Grand Rapids",
    "parsed_date": "2026-05-18",
    "lat": 42.9634,
    "lon": -85.6681,
    "category": "outdoor"
  },
  {
    "title": "Talent & Human Resources Workshop: Inclusive Collaboration",
    "date": "2026-05-19",
    "time": "All day",
    "location": "Grand Rapids Chamber, 250 Monroe Ave",
    "url": "https://grandrapids.org/event/talent-human-resources-workshop-5-19/",
    "site": "Grand Rapids",
    "parsed_date": "2026-05-19",
    "lat": 42.9634,
    "lon": -85.6681,
    "category": "educational"
  },
  {
    "title": "Business Exchange Luncheon",
    "date": "2026-05-21",
    "time": "All day",
    "location": "The Rutledge, 120 Ionia Ave SW Suite 101",
    "url": "https://grandrapids.org/event/business-exchange-luncheon-5-21/",
    "site": "Grand Rapids",
    "parsed_date": "2026-05-21",
    "lat": 42.9634,
    "lon": -85.6681,
    "category": "outdoor"
  },
  {
    "title": "Chamber Happy Hour",
    "date": "2026-05-27",
    "time": "All day",
    "location": "Grand Rapids Chamber, 250 Monroe Ave",
    "url": "https://grandrapids.org/event/chamber-happy-hour-5-27/",
    "site": "Grand Rapids",
    "parsed_date": "2026-05-27",
    "lat": 42.9634,
    "lon": -85.6681,
    "category": "outdoor"
  },
  {
    "title": "West Michigan CEO Summit",
    "date": "2026-06-02",
    "time": "All day",
    "location": "JW Marriott Grand Rapids: International Ballroom, 235 Louis St NW",
    "url": "https://grandrapids.org/event/west-michigan-ceo-summit-2026/",
    "site": "Grand Rapids",
    "parsed_date": "2026-06-02",
    "lat": 42.9634,
    "lon": -85.6681,
    "category": "outdoor"
  },
  {
    "title": "First Friday Update",
    "date": "2026-06-05",
    "time": "All day",
    "location": "Zoom Webinar",
    "url": "https://grandrapids.org/event/first-friday-update-6-5/",
    "site": "Grand Rapids",
    "parsed_date": "2026-06-05",
    "lat": 42.9634,
    "lon": -85.6681,
    "category": "outdoor"
  },
  {
    "title": "Business Exchange Luncheon",
    "date": "2026-06-18",
    "time": "All day",
    "location": "Sunnybrook Country Club, 624 Port Sheldon Rd",
    "url": "https://grandrapids.org/event/business-exchange-luncheon-6-18/",
    "site": "Grand Rapids",
    "parsed_date": "2026-06-18",
    "lat": 42.9634,
    "lon": -85.6681,
    "category": "outdoor"
  },
  {
    "title": "Ending Homelessness: A Celebration of Impact",
    "date": "2026-06-18",
    "time": "All day",
    "location": "Grand Rapids Chamber, 250 Monroe Ave",
    "url": "https://grandrapids.org/event/ending-homelessness-a-celebration-of-impact/",
    "site": "Grand Rapids",
    "parsed_date": "2026-06-18",
    "lat": 42.9634,
    "lon": -85.6681,
    "category": "festival"
  },
  {
    "title": "Making It Work: The Essentials for Professional Women",
    "date": "2026-06-23",
    "time": "All day",
    "location": "Watermark Country Club, 1600 Galbraith Ave SE",
    "url": "https://grandrapids.org/event/athena-leadership-forum-6-23/",
    "site": "Grand Rapids",
    "parsed_date": "2026-06-23",
    "lat": 42.9634,
    "lon": -85.6681,
    "category": "outdoor"
  },
  {
    "title": "Chamber Happy Hour",
    "date": "2026-06-24",
    "time": "All day",
    "location": "Grand Rapids Chamber, 250 Monroe Ave",
    "url": "https://grandrapids.org/event/chamber-happy-hour-6-24/",
    "site": "Grand Rapids",
    "parsed_date": "2026-06-24",
    "lat": 42.9634,
    "lon": -85.6681,
    "category": "outdoor"
  }
]