[
  {
    "title": "PREK Story & STEAM",
    "date": "May 8",
    "time": "8:00 AM - 5:00 PM",
    "location": "DINOSAUR HILL NATURE PRESERVE",
    "url": "https://littleguidedetroit.com/event/prek-story-steam-2/2026-05-08/",
    "site": "Detroit Metro",
    "parsed_date": "2026-05-08",
    "lat": 43.0131,
    "lon": -83.6594,
    "category": "library"
  },
  {
    "title": "Blake's In Bloom",
    "date": "May 8",
    "time": "8:00 AM - 5:00 PM",
    "location": "Blake Farms and Apple Orchard",
    "url": "https://littleguidedetroit.com/event/blakes-in-bloom/2026-05-08/",
    "site": "Detroit Metro",
    "parsed_date": "2026-05-08",
    "lat": 42.448,
    "lon": -83.1265,
    "category": "outdoor"
  },
  {
    "title": "Theut's Flower Barn Tulip Festival",
    "date": "May 8",
    "time": "9:00 AM - 6:00 PM",
    "location": "Theut's Flower Barn",
    "url": "https://littleguidedetroit.com/event/theuts-flower-barn-tulip-festival/2026-05-08/",
    "site": "Detroit Metro",
    "parsed_date": "2026-05-08",
    "lat": 42.5157,
    "lon": -83.1529,
    "category": "festival"
  },
  {
    "title": "Little Creators (with Grown-Ups)",
    "date": "May 8",
    "time": "9:30 AM - 10:30 AM",
    "location": "The Suzanne Haskew Arts Center",
    "url": "https://littleguidedetroit.com/event/little-creators-with-grown-ups/2026-05-08/",
    "site": "Detroit Metro",
    "parsed_date": "2026-05-08",
    "lat": 42.2808,
    "lon": -83.743,
    "category": "outdoor"
  },
  {
    "title": "Sparking Science",
    "date": "May 8",
    "time": "10:00 AM - 11:00 AM",
    "location": "Impression 5 Science Center",
    "url": "https://littleguidedetroit.com/event/sparking-science-2/2026-05-08/",
    "site": "Detroit Metro",
    "parsed_date": "2026-05-08",
    "lat": 43.0126,
    "lon": -83.6872,
    "category": "educational"
  },
  {
    "title": "Outdoor Play Group",
    "date": "May 8",
    "time": "10:00 AM - 12:00 PM",
    "location": "Highland Township Public Library",
    "url": "https://littleguidedetroit.com/event/outdoor-play-group-2/2026-05-08/",
    "site": "Detroit Metro",
    "parsed_date": "2026-05-08",
    "lat": 42.5875,
    "lon": -83.381,
    "category": "outdoor"
  },
  {
    "title": "Free Community Play Date",
    "date": "May 8",
    "time": "10:00 AM - 12:00 PM",
    "location": "Recess Cafe",
    "url": "https://littleguidedetroit.com/event/free-community-play-date/",
    "site": "Detroit Metro",
    "parsed_date": "2026-05-08",
    "lat": 42.2808,
    "lon": -83.743,
    "category": "free"
  },
  {
    "title": "Rochester Open Swim",
    "date": "May 8",
    "time": "12:00 PM - 1:00 PM",
    "location": "Goldfish Swim School \u2013 Rochester",
    "url": "https://littleguidedetroit.com/event/rochester-open-swim/2026-05-08/",
    "site": "Detroit Metro",
    "parsed_date": "2026-05-08",
    "lat": 42.6984,
    "lon": -83.1348,
    "category": "sport"
  },
  {
    "title": "Lansing Spring Carnival",
    "date": "May 8",
    "time": "12:00 PM - 10:00 PM",
    "location": "Abundant Grace Faith Church",
    "url": "https://littleguidedetroit.com/event/lansing-spring-carnival/2026-05-08/",
    "site": "Detroit Metro",
    "parsed_date": "2026-05-08",
    "lat": 42.7284,
    "lon": -84.5454,
    "category": "festival"
  },
  {
    "title": "Baby Week Celebration with a Free Class",
    "date": "May 8",
    "time": "12:15 PM - 1:00 PM",
    "location": "GYMBOREE PLAY & MUSIC \u2013 ROCHESTER HILLS",
    "url": "https://littleguidedetroit.com/event/baby-week-celebration-with-a-free-class/2026-05-08/",
    "site": "Detroit Metro",
    "parsed_date": "2026-05-08",
    "lat": 42.6984,
    "lon": -83.1348,
    "category": "festival"
  },
  {
    "title": "Mother's Day Tea",
    "date": "May 8",
    "time": "12:30 PM - 3:00 PM",
    "location": "Meadowbrook Hall And Gardens",
    "url": "https://littleguidedetroit.com/event/mothers-day-tea/",
    "site": "Detroit Metro",
    "parsed_date": "2026-05-08",
    "lat": 42.3314,
    "lon": -83.0458,
    "category": "outdoor"
  },
  {
    "title": "Friday Guided Tours",
    "date": "May 8",
    "time": "1:00 PM - 2:00 PM",
    "location": "R.E. Olds Transportation Museum",
    "url": "https://littleguidedetroit.com/event/friday-guided-tours/2026-05-08/",
    "site": "Detroit Metro",
    "parsed_date": "2026-05-08",
    "lat": 42.3314,
    "lon": -83.0458,
    "category": "outdoor"
  },
  {
    "title": "Paint with Mommy: Mermaid Set",
    "date": "May 8",
    "time": "4:00 PM - 6:00 PM",
    "location": "Painting With A Twist",
    "url": "https://littleguidedetroit.com/event/paint-with-mommy-mermaid-set/",
    "site": "Detroit Metro",
    "parsed_date": "2026-05-08",
    "lat": 42.2808,
    "lon": -83.743,
    "category": "outdoor"
  },
  {
    "title": "Open Barn",
    "date": "May 8",
    "time": "5:00 PM - 8:00 PM",
    "location": "CHARLES L. BOWERS SCHOOL FARM",
    "url": "https://littleguidedetroit.com/event/open-barn/2026-05-08/",
    "site": "Detroit Metro",
    "parsed_date": "2026-05-08",
    "lat": 42.5948,
    "lon": -83.6945,
    "category": "outdoor"
  },
  {
    "title": "Hooves & Hikes with a Farmer",
    "date": "May 8",
    "time": "6:00 PM - 7:00 PM",
    "location": "Hess-Hathaway Park",
    "url": "https://littleguidedetroit.com/event/hooves-hikes-with-a-farmer/2026-05-08/",
    "site": "Detroit Metro",
    "parsed_date": "2026-05-08",
    "lat": 42.2451,
    "lon": -83.6171,
    "category": "nature"
  },
  {
    "title": "Birmingham Family Swim",
    "date": "May 8",
    "time": "6:30 PM - 8:00 PM",
    "location": "Goldfish Swim School \u2013 Birmingham",
    "url": "https://littleguidedetroit.com/event/birmingham-family-swim/2026-05-08/",
    "site": "Detroit Metro",
    "parsed_date": "2026-05-08",
    "lat": 42.5475,
    "lon": -83.2118,
    "category": "sport"
  },
  {
    "title": "Canton Open Swim",
    "date": "May 8",
    "time": "6:30 PM - 8:00 PM",
    "location": "Goldfish Swim School \u2013 Canton",
    "url": "https://littleguidedetroit.com/event/canton-open-swim/2026-05-08/",
    "site": "Detroit Metro",
    "parsed_date": "2026-05-08",
    "lat": 42.3067,
    "lon": -83.4423,
    "category": "sport"
  },
  {
    "title": "Macomb Family Swim",
    "date": "May 8",
    "time": "6:30 PM - 8:00 PM",
    "location": "Goldfish Swim School \u2013 Macomb",
    "url": "https://littleguidedetroit.com/event/macomb-family-swim/2026-05-08/",
    "site": "Detroit Metro",
    "parsed_date": "2026-05-08",
    "lat": 42.6969,
    "lon": -82.9667,
    "category": "sport"
  },
  {
    "title": "Rochester Family Swim",
    "date": "May 8",
    "time": "6:30 PM - 8:00 PM",
    "location": "Goldfish Swim School \u2013 Rochester",
    "url": "https://littleguidedetroit.com/event/rochester-family-swim/2026-05-08/",
    "site": "Detroit Metro",
    "parsed_date": "2026-05-08",
    "lat": 42.6984,
    "lon": -83.1348,
    "category": "sport"
  },
  {
    "title": "Mother's Day Family Swim at Goldfish Swim School \u2013 Birmingham",
    "date": "May 8",
    "time": "6:30 PM - 8:00 PM",
    "location": "Goldfish Swim School \u2013 Birmingham",
    "url": "https://littleguidedetroit.com/event/may-flowers-open-swim/",
    "site": "Detroit Metro",
    "parsed_date": "2026-05-08",
    "lat": 42.5475,
    "lon": -83.2118,
    "category": "sport"
  },
  {
    "title": "GRAND RAPIDS LANTERN FESTIVAL",
    "date": "May 8",
    "time": "7:30 PM - 11:30 PM",
    "location": "John Ball Zoo",
    "url": "https://littleguidedetroit.com/event/grand-rapids-lantern-festival/2026-05-08/",
    "site": "Detroit Metro",
    "parsed_date": "2026-05-08",
    "lat": 42.9626,
    "lon": -85.6669,
    "category": "festival"
  },
  {
    "title": "Mystery of the Mayan Medallion",
    "date": "May 9",
    "time": "All Day",
    "location": "CRANBROOK SCIENCE MUSEUM",
    "url": "https://littleguidedetroit.com/event/mystery-of-the-mayan-medallion/2026-05-09/",
    "site": "Detroit Metro",
    "parsed_date": "2026-05-09",
    "lat": 42.5023,
    "lon": -83.2668,
    "category": "outdoor"
  },
  {
    "title": "Michigan Humane's Tailgate",
    "date": "May 9",
    "time": "7:30 AM - 2:00 PM",
    "location": "Roosevelt Park",
    "url": "https://littleguidedetroit.com/event/michigan-humanes-tailgate/",
    "site": "Detroit Metro",
    "parsed_date": "2026-05-09",
    "lat": 42.3736,
    "lon": -83.0619,
    "category": "outdoor"
  },
  {
    "title": "World Migratory Bird Day at Fenner",
    "date": "May 9",
    "time": "8:00 AM - 8:00 PM",
    "location": "Fenner Nature Center",
    "url": "https://littleguidedetroit.com/event/world-migratory-bird-day-at-fenner/",
    "site": "Detroit Metro",
    "parsed_date": "2026-05-09",
    "lat": 42.7369,
    "lon": -84.4104,
    "category": "outdoor"
  },
  {
    "title": "Blake's In Bloom",
    "date": "May 9",
    "time": "8:00 AM - 5:00 PM",
    "location": "Blake Farms and Apple Orchard",
    "url": "https://littleguidedetroit.com/event/blakes-in-bloom/2026-05-09/",
    "site": "Detroit Metro",
    "parsed_date": "2026-05-09",
    "lat": 42.448,
    "lon": -83.1265,
    "category": "outdoor"
  },
  {
    "title": "Howell Touch a Truck",
    "date": "May 9",
    "time": "9:00 AM - 2:00 PM",
    "location": "Kensington Valley Outlets",
    "url": "https://littleguidedetroit.com/event/howell-touch-a-truck/",
    "site": "Detroit Metro",
    "parsed_date": "2026-05-09",
    "lat": 42.6176,
    "lon": -83.7942,
    "category": "outdoor"
  },
  {
    "title": "Open Barn",
    "date": "May 9",
    "time": "9:00 AM - 4:00 PM",
    "location": "CHARLES L. BOWERS SCHOOL FARM",
    "url": "https://littleguidedetroit.com/event/open-barn-2/2026-05-09/",
    "site": "Detroit Metro",
    "parsed_date": "2026-05-09",
    "lat": 42.5948,
    "lon": -83.6945,
    "category": "outdoor"
  },
  {
    "title": "Family Fishing Frenzy",
    "date": "May 9",
    "time": "9:00 AM - 12:00 PM",
    "location": "HERITAGE PARK \u2013 CANTON",
    "url": "https://littleguidedetroit.com/event/family-fishing-frenzy/",
    "site": "Detroit Metro",
    "parsed_date": "2026-05-09",
    "lat": 42.3067,
    "lon": -83.4423,
    "category": "outdoor"
  },
  {
    "title": "Open Climb then Play",
    "date": "May 9",
    "time": "9:00 AM - 10:30 AM",
    "location": "Troy Gym \u2013 TG4",
    "url": "https://littleguidedetroit.com/event/open-climb-then-play/2026-05-09/",
    "site": "Detroit Metro",
    "parsed_date": "2026-05-09",
    "lat": 42.6064,
    "lon": -83.1498,
    "category": "outdoor"
  },
  {
    "title": "Theut's Flower Barn Tulip Festival",
    "date": "May 9",
    "time": "9:00 AM - 6:00 PM",
    "location": "Theut's Flower Barn",
    "url": "https://littleguidedetroit.com/event/theuts-flower-barn-tulip-festival/2026-05-09/",
    "site": "Detroit Metro",
    "parsed_date": "2026-05-09",
    "lat": 42.5157,
    "lon": -83.1529,
    "category": "festival"
  },
  {
    "title": "FREE Admission Waterloo Farm Museum",
    "date": "May 9",
    "time": "10:00 AM - 4:00 PM",
    "location": "Waterloo Farm and Dewey School Museum",
    "url": "https://littleguidedetroit.com/event/free-admission-waterloo-farm-museum/",
    "site": "Detroit Metro",
    "parsed_date": "2026-05-09",
    "lat": 42.7751,
    "lon": -83.5807,
    "category": "educational"
  },
  {
    "title": "Annual Garden Party in the Alley",
    "date": "May 9",
    "time": "10:00 AM - 5:00 PM",
    "location": "Downtown Howell",
    "url": "https://littleguidedetroit.com/event/annual-garden-party-in-the-alley/",
    "site": "Detroit Metro",
    "parsed_date": "2026-05-09",
    "lat": 42.6176,
    "lon": -83.7942,
    "category": "outdoor"
  },
  {
    "title": "ART BIRMINGHAM",
    "date": "May 9",
    "time": "10:00 AM - 6:00 PM",
    "location": "Shain Park",
    "url": "https://littleguidedetroit.com/event/art-birmingham/2026-05-09/",
    "site": "Detroit Metro",
    "parsed_date": "2026-05-09",
    "lat": 42.3314,
    "lon": -83.0458,
    "category": "outdoor"
  },
  {
    "title": "Mother's Day Wildflower Walk",
    "date": "May 9",
    "time": "10:00 AM - 2:00 PM",
    "location": "Kensington Nature Center",
    "url": "https://littleguidedetroit.com/event/mothers-day-wildflower-wal/",
    "site": "Detroit Metro",
    "parsed_date": "2026-05-09",
    "lat": 42.3314,
    "lon": -83.0458,
    "category": "outdoor"
  },
  {
    "title": "Lakeshore Stroll",
    "date": "May 9",
    "time": "10:00 AM - 12:00 PM",
    "location": "Lake Erie Marshlands Museum",
    "url": "https://littleguidedetroit.com/event/lakeshore-stroll/",
    "site": "Detroit Metro",
    "parsed_date": "2026-05-09",
    "lat": 42.3314,
    "lon": -83.0458,
    "category": "outdoor"
  },
  {
    "title": "Garden Club: Indian Springs",
    "date": "May 9",
    "time": "10:00 AM - 12:00 PM",
    "location": "Indian Springs Environmental Discovery Center",
    "url": "https://littleguidedetroit.com/event/garden-club-indian-springs/2026-05-09/",
    "site": "Detroit Metro",
    "parsed_date": "2026-05-09",
    "lat": 42.3314,
    "lon": -83.0458,
    "category": "outdoor"
  },
  {
    "title": "Project Kidsight Vision Screening",
    "date": "May 9",
    "time": "10:00 AM - 12:00 PM",
    "location": "BALDWIN PUBLIC LIBRARY",
    "url": "https://littleguidedetroit.com/event/project-kidsight-vision-screening-2/",
    "site": "Detroit Metro",
    "parsed_date": "2026-05-09",
    "lat": 42.3314,
    "lon": -83.0458,
    "category": "outdoor"
  },
  {
    "title": "Mother's Day Mini-Golf Weekend",
    "date": "May 9",
    "time": "10:00 AM - 5:00 PM",
    "location": "CRANBROOK ART MUSEUM",
    "url": "https://littleguidedetroit.com/event/mothers-day-mini-golf-weekend/2026-05-09/",
    "site": "Detroit Metro",
    "parsed_date": "2026-05-09",
    "lat": 42.3314,
    "lon": -83.0458,
    "category": "sport"
  },
  {
    "title": "Mother's Day Weekend Brunch",
    "date": "May 9",
    "time": "10:00 AM - 2:00 PM",
    "location": "Jojo's Shake Bar",
    "url": "https://littleguidedetroit.com/event/mothers-day-weekend-brunch/2026-05-09/",
    "site": "Detroit Metro",
    "parsed_date": "2026-05-09",
    "lat": 42.3314,
    "lon": -83.0458,
    "category": "sport"
  },
  {
    "title": "May LEGO Club",
    "date": "May 9",
    "time": "10:00 AM - 11:30 AM",
    "location": "Sloan Museum",
    "url": "https://littleguidedetroit.com/event/may-lego-club/",
    "site": "Detroit Metro",
    "parsed_date": "2026-05-09",
    "lat": 42.3314,
    "lon": -83.0458,
    "category": "outdoor"
  },
  {
    "title": "Baby Week Celebration with a Free Class",
    "date": "May 9",
    "time": "10:45 AM - 11:30 AM",
    "location": "GYMBOREE PLAY & MUSIC \u2013 ROCHESTER HILLS",
    "url": "https://littleguidedetroit.com/event/baby-week-celebration-with-a-free-class/2026-05-09/",
    "site": "Detroit Metro",
    "parsed_date": "2026-05-09",
    "lat": 42.6984,
    "lon": -83.1348,
    "category": "festival"
  },
  {
    "title": "Family Day",
    "date": "May 9",
    "time": "11:00 AM - 3:00 PM",
    "location": "Museum of Contemporary Art Detroit (MOCAD)",
    "url": "https://littleguidedetroit.com/event/family-day/2026-05-09/",
    "site": "Detroit Metro",
    "parsed_date": "2026-05-09",
    "lat": 42.3314,
    "lon": -83.0458,
    "category": "outdoor"
  },
  {
    "title": "Farm History Day",
    "date": "Friday May 8, 2026",
    "time": "All day",
    "location": "",
    "url": "https://www.southhavenmi.com/events/details/farm-history-day-12743",
    "site": "South Haven",
    "parsed_date": "2026-05-08",
    "lat": 42.4059,
    "lon": -86.3163,
    "category": "library"
  },
  {
    "title": "Mega Mermaid Weekend @ Lake Arvesta Farms",
    "date": "Friday May 8, 2026",
    "time": "All day",
    "location": "",
    "url": "https://www.southhavenmi.com/events/details/mega-mermaid-weekend-lake-arvesta-farms-13587",
    "site": "South Haven",
    "parsed_date": "2026-05-08",
    "lat": 42.4059,
    "lon": -86.3163,
    "category": "outdoor"
  },
  {
    "title": "Fish Fry Friday @Kitchen 527",
    "date": "Friday May 8, 2026",
    "time": "All day",
    "location": "",
    "url": "https://www.southhavenmi.com/events/details/fish-fry-friday-kitchen-527-05-08-2026-13779",
    "site": "South Haven",
    "parsed_date": "2026-05-08",
    "lat": 42.4059,
    "lon": -86.3163,
    "category": "outdoor"
  },
  {
    "title": "Len Gryga Exhibit @ SHCA",
    "date": "Friday May 8, 2026",
    "time": "All day",
    "location": "",
    "url": "https://www.southhavenmi.com/events/details/len-gryga-exhibit-shca-14592",
    "site": "South Haven",
    "parsed_date": "2026-05-08",
    "lat": 42.4059,
    "lon": -86.3163,
    "category": "outdoor"
  },
  {
    "title": "Mother's Day Spa Special & 2 Night Stay @ DayDreamer's Domes",
    "date": "Friday May 8, 2026",
    "time": "All day",
    "location": "",
    "url": "https://www.southhavenmi.com/events/details/mother-s-day-spa-special-2-night-stay-daydreamer-s-domes-14905",
    "site": "South Haven",
    "parsed_date": "2026-05-08",
    "lat": 42.4059,
    "lon": -86.3163,
    "category": "outdoor"
  },
  {
    "title": "\"The Who's Tommy\"",
    "date": "Dates vary between May 8, 2026 - May 10, 2026",
    "time": "All day",
    "location": "Interlochen Center for the Arts",
    "url": "/event-detail/the-who%e2%80%99s-tommy/23867/",
    "site": "Traverse City",
    "parsed_date": "unknown",
    "lat": 44.606,
    "lon": -85.628,
    "category": "outdoor"
  },
  {
    "title": "Comedy Night at Right Brain Brewery",
    "date": "May 8, 2026",
    "time": "All day",
    "location": "Right Brain Brewery",
    "url": "/event-detail/comedy-night-at-right-brain-brewery/25598/",
    "site": "Traverse City",
    "parsed_date": "2026-05-08",
    "lat": 44.763,
    "lon": -85.615,
    "category": "outdoor"
  },
  {
    "title": "Tuscan Bistro Nights",
    "date": "Dates vary between May 6, 2026 - May 9, 2026",
    "time": "All day",
    "location": "The Grille at Grand Traverse Resort and Spa",
    "url": "/event-detail/tuscan-bistro-nights/25603/",
    "site": "Traverse City",
    "parsed_date": "unknown",
    "lat": 44.7631,
    "lon": -85.6206,
    "category": "outdoor"
  },
  {
    "title": "Wine School Series: Chardonnay",
    "date": "May 8, 2026",
    "time": "All day",
    "location": "Tasting Room",
    "url": "/event-detail/wine-school-series%3a-chardonnay/25418/",
    "site": "Traverse City",
    "parsed_date": "2026-05-08",
    "lat": 44.7631,
    "lon": -85.6206,
    "category": "outdoor"
  },
  {
    "title": "Traverse City Uncorked 2026",
    "date": "Recurring daily until May 10, 2026",
    "time": "All day",
    "location": "Traverse Wine Coast Wineries",
    "url": "/event-detail/traverse-city-uncorked-2026/23740/",
    "site": "Traverse City",
    "parsed_date": "unknown",
    "lat": 44.78,
    "lon": -85.59,
    "category": "outdoor"
  },
  {
    "title": "2026 Organic Plant Sale",
    "date": "Recurring daily until May 31, 2026",
    "time": "All day",
    "location": "Lakeview Hill Farm",
    "url": "/event-detail/2026-organic-plant-sale/25861/",
    "site": "Traverse City",
    "parsed_date": "unknown",
    "lat": 44.7631,
    "lon": -85.6206,
    "category": "outdoor"
  },
  {
    "title": "Bistro Dinner: In Bloom\u2014A Celebration of Cherries",
    "date": "Dates vary between May 8, 2026 - May 29, 2026",
    "time": "All day",
    "location": "Bistro Polaris at Black Star Farms",
    "url": "/event-detail/bistro-dinner%3a-in-bloom%e2%80%94a-celebration-of-cherries/25641/",
    "site": "Traverse City",
    "parsed_date": "unknown",
    "lat": 44.7631,
    "lon": -85.6206,
    "category": "festival"
  },
  {
    "title": "Cosmo St. Charles is Dead and Someone in this Room Killed Him",
    "date": "Dates vary between May 8, 2026 - May 10, 2026",
    "time": "All day",
    "location": "Old Town Playhouse",
    "url": "/event-detail/cosmo-st-charles-is-dead-and-someone-in-this-room-killed-him/25529/",
    "site": "Traverse City",
    "parsed_date": "unknown",
    "lat": 44.7631,
    "lon": -85.6206,
    "category": "outdoor"
  },
  {
    "title": "DJ Bingo",
    "date": "Recurring weekly on Wednesday, Friday",
    "time": "All day",
    "location": "Various Locations",
    "url": "/event-detail/dj-bingo/21493/",
    "site": "Traverse City",
    "parsed_date": "unknown",
    "lat": 44.7631,
    "lon": -85.6206,
    "category": "outdoor"
  },
  {
    "title": "EDM ROCK Party Night",
    "date": "May 8, 2026",
    "time": "All day",
    "location": "Turtle Creek Casino",
    "url": "/event-detail/edm-rock-party-night/25532/",
    "site": "Traverse City",
    "parsed_date": "2026-05-08",
    "lat": 44.7631,
    "lon": -85.6206,
    "category": "outdoor"
  },
  {
    "title": "Live Music Ft. 1 Wave DJs",
    "date": "Dates vary between May 1, 2026 - August 28, 2026",
    "time": "All day",
    "location": "Waterfall",
    "url": "/event-detail/live-music-ft-1-wave-djs/25762/",
    "site": "Traverse City",
    "parsed_date": "unknown",
    "lat": 44.7631,
    "lon": -85.6206,
    "category": "outdoor"
  },
  {
    "title": "Live Music at Iron Fish Distillery",
    "date": "Recurring weekly on Friday, Saturday",
    "time": "All day",
    "location": "Iron Fish Distillery",
    "url": "/event-detail/live-music-at-iron-fish-distillery/24957/",
    "site": "Traverse City",
    "parsed_date": "unknown",
    "lat": 44.7631,
    "lon": -85.6206,
    "category": "outdoor"
  },
  {
    "title": "Live Music with Jeff Socia",
    "date": "May 8, 2026",
    "time": "All day",
    "location": "Traverse City Whiskey Co.",
    "url": "/event-detail/live-music-with-jeff-socia/25664/",
    "site": "Traverse City",
    "parsed_date": "2026-05-08",
    "lat": 44.7631,
    "lon": -85.6206,
    "category": "outdoor"
  },
  {
    "title": "Signature Experience  A Taste of Brengman",
    "date": "Recurring daily until October 16, 2026",
    "time": "All day",
    "location": "Brengman Family Wines",
    "url": "/event-detail/signature-experience-a-taste-of-brengman/24870/",
    "site": "Traverse City",
    "parsed_date": "unknown",
    "lat": 44.78,
    "lon": -85.59,
    "category": "nature"
  },
  {
    "title": "Sound Bites: Live Music with Luke Woltanski",
    "date": "May 8, 2026",
    "time": "All day",
    "location": "Chateau Grand Traverse",
    "url": "/event-detail/sound-bites%3a-live-music-with-luke-woltanski/25614/",
    "site": "Traverse City",
    "parsed_date": "2026-05-08",
    "lat": 44.7631,
    "lon": -85.6206,
    "category": "outdoor"
  },
  {
    "title": "Grand Haven Farmers Market",
    "date": "May 9, 2026",
    "time": "8:00 am - 1:00 pm",
    "location": "",
    "url": "https://visitgrandhaven.com/events/grand-haven-farmers-market-2/grand-haven-farmers-market-2026-05-09/",
    "site": "Grand Haven",
    "parsed_date": "2026-05-09",
    "lat": 43.065,
    "lon": -86.227,
    "category": "outdoor"
  },
  {
    "title": "Tote Club Days",
    "date": "May 9, 2026",
    "time": "10:00 am - 8:00 pm",
    "location": "",
    "url": "https://visitgrandhaven.com/events/tote-club-days-2/",
    "site": "Grand Haven",
    "parsed_date": "2026-05-09",
    "lat": 43.065,
    "lon": -86.227,
    "category": "outdoor"
  },
  {
    "title": "Mother's Day Luncheon",
    "date": "May 9, 2026",
    "time": "12:00 pm - 2:00 pm",
    "location": "",
    "url": "https://visitgrandhaven.com/events/mothers-day-luncheon/",
    "site": "Grand Haven",
    "parsed_date": "2026-05-09",
    "lat": 43.065,
    "lon": -86.227,
    "category": "outdoor"
  },
  {
    "title": "Musical Fountain Testing Nights",
    "date": "May 15, 2026",
    "time": "9:30 pm - 11:00 pm",
    "location": "",
    "url": "https://visitgrandhaven.com/events/musical-fountain-testing-nights/musical-fountain-testing-nights/",
    "site": "Grand Haven",
    "parsed_date": "2026-05-15",
    "lat": 43.065,
    "lon": -86.227,
    "category": "outdoor"
  },
  {
    "title": "The Kite Festival at Grand Haven",
    "date": "May 16, 2026",
    "time": "10:00 am - 5:00 pm",
    "location": "",
    "url": "https://visitgrandhaven.com/events/the-kite-festival-at-grand-haven/",
    "site": "Grand Haven",
    "parsed_date": "2026-05-16",
    "lat": 43.065,
    "lon": -86.227,
    "category": "festival"
  },
  {
    "title": "Musical Fountain Testing Nights",
    "date": "May 16, 2026",
    "time": "9:30 pm - 11:00 pm",
    "location": "",
    "url": "https://visitgrandhaven.com/events/musical-fountain-testing-nights/musical-fountain-testing-nights-2/",
    "site": "Grand Haven",
    "parsed_date": "2026-05-16",
    "lat": 43.065,
    "lon": -86.227,
    "category": "outdoor"
  },
  {
    "title": "1st Annual Club Crawl Poker Run",
    "date": "May 16, 2026",
    "time": "2:00 pm - 7:00 pm",
    "location": "",
    "url": "https://visitgrandhaven.com/events/1st-annual-club-crawl/",
    "site": "Grand Haven",
    "parsed_date": "2026-05-16",
    "lat": 43.065,
    "lon": -86.227,
    "category": "sport"
  },
  {
    "title": "Grand Haven Farmers Market",
    "date": "May 16, 2026",
    "time": "8:00 am - 1:00 pm",
    "location": "",
    "url": "https://visitgrandhaven.com/events/grand-haven-farmers-market-2/grand-haven-farmers-market-2026-05-16/",
    "site": "Grand Haven",
    "parsed_date": "2026-05-16",
    "lat": 43.065,
    "lon": -86.227,
    "category": "outdoor"
  },
  {
    "title": "Armed Services Marathon",
    "date": "May 17, 2026",
    "time": "7:00 am - 2:00 pm",
    "location": "",
    "url": "https://visitgrandhaven.com/events/armed-services-marathon/",
    "site": "Grand Haven",
    "parsed_date": "2026-05-17",
    "lat": 43.065,
    "lon": -86.227,
    "category": "outdoor"
  },
  {
    "title": "The Kite Festival at Grand Haven",
    "date": "May 17, 2026",
    "time": "11:00 am - 5:00 pm",
    "location": "",
    "url": "https://visitgrandhaven.com/events/the-kite-festival-at-grand-haven/the-kite-festival-at-grand-haven-2026-05-17/",
    "site": "Grand Haven",
    "parsed_date": "2026-05-17",
    "lat": 43.065,
    "lon": -86.227,
    "category": "festival"
  },
  {
    "title": "Blood Drive - Spring Lake",
    "date": "May 21, 2026",
    "time": "1:00 pm - 5:30 pm",
    "location": "",
    "url": "https://visitgrandhaven.com/events/blood-drive-spring-lake/",
    "site": "Grand Haven",
    "parsed_date": "2026-05-21",
    "lat": 43.065,
    "lon": -86.227,
    "category": "outdoor"
  },
  {
    "title": "Annual Grand Haven VFW Ribfest",
    "date": "May 22, 2026",
    "time": "4:00 pm - 11:59 pm",
    "location": "",
    "url": "https://visitgrandhaven.com/events/annual-grand-haven-vfw-ribfest/",
    "site": "Grand Haven",
    "parsed_date": "2026-05-22",
    "lat": 43.065,
    "lon": -86.227,
    "category": "outdoor"
  },
  {
    "title": "(apr 28)10:00 am09may(may 9)4:00 pm\"No More Stolen Sisters\" A REDress Exhibit(Ap",
    "date": "28 APR",
    "time": "All day",
    "location": "",
    "url": "https://meetmtp.com/event/no-more-stolen-sisters-a-redress-exhibit/",
    "site": "Mt. Pleasant",
    "parsed_date": "unknown",
    "lat": 43.5975,
    "lon": -84.7423,
    "category": "outdoor"
  },
  {
    "title": "RumorsBroadway Players Present: Rumors7:00 pm(GMT-04:00)",
    "date": "08 MAY",
    "time": "All day",
    "location": "",
    "url": "https://meetmtp.com/event/rumors/",
    "site": "Mt. Pleasant",
    "parsed_date": "unknown",
    "lat": 43.5975,
    "lon": -84.7423,
    "category": "outdoor"
  },
  {
    "title": "Jeff Dunham",
    "date": "08 MAY",
    "time": "8:00 pm - 11:00 pm",
    "location": "",
    "url": "https://meetmtp.com/event/jeff-dunham/",
    "site": "Mt. Pleasant",
    "parsed_date": "unknown",
    "lat": 43.5975,
    "lon": -84.7423,
    "category": "outdoor"
  },
  {
    "title": "Pressed Botanical Teacups",
    "date": "09 MAY",
    "time": "1:00 pm - 3:00 pm",
    "location": "",
    "url": "https://meetmtp.com/event/pressed-botanical-teacups/",
    "site": "Mt. Pleasant",
    "parsed_date": "unknown",
    "lat": 43.5975,
    "lon": -84.7423,
    "category": "outdoor"
  },
  {
    "title": "The Tempations and the Four Tops",
    "date": "09 MAY",
    "time": "8:00 pm - 11:00 pm",
    "location": "",
    "url": "https://meetmtp.com/event/the-tempations-and-the-four-tops/",
    "site": "Mt. Pleasant",
    "parsed_date": "unknown",
    "lat": 43.5975,
    "lon": -84.7423,
    "category": "outdoor"
  },
  {
    "title": "Colored Pencil Drawing: Advanced (May)",
    "date": "11 MAY",
    "time": "6:00 pm - 8:00 pm",
    "location": "",
    "url": "https://meetmtp.com/event/colored-pencil-drawing-advanced-may/var/ri-1.l-L1",
    "site": "Mt. Pleasant",
    "parsed_date": "unknown",
    "lat": 43.5975,
    "lon": -84.7423,
    "category": "outdoor"
  },
  {
    "title": "Michigan Orchids in Watercolor",
    "date": "12 MAY",
    "time": "3:00 pm - 5:00 pm",
    "location": "",
    "url": "https://meetmtp.com/event/michigan-orchids-in-watercolor/",
    "site": "Mt. Pleasant",
    "parsed_date": "unknown",
    "lat": 43.5975,
    "lon": -84.7423,
    "category": "outdoor"
  },
  {
    "title": "Introduction to Portrait Drawing",
    "date": "12 MAY",
    "time": "5:30 pm - 8:00 pm",
    "location": "",
    "url": "https://meetmtp.com/event/introduction-to-portrait-drawing/var/ri-1.l-L1",
    "site": "Mt. Pleasant",
    "parsed_date": "unknown",
    "lat": 43.5975,
    "lon": -84.7423,
    "category": "outdoor"
  },
  {
    "title": "Chippewa Valley Audubon Club ProgramThe Pine River from Midland to Its Source in Mecosta",
    "date": "13 MAY",
    "time": "7:00 pm - 9:00 pm",
    "location": "",
    "url": "https://meetmtp.com/event/chippewa-valley-audubon-club-program/",
    "site": "Mt. Pleasant",
    "parsed_date": "unknown",
    "lat": 43.5975,
    "lon": -84.7423,
    "category": "outdoor"
  },
  {
    "title": "Birds on the Brink: Watercolor Studies",
    "date": "14 MAY",
    "time": "2:00 pm - 2:00 pm",
    "location": "",
    "url": "https://meetmtp.com/event/birds-on-the-brink-watercolor-studies/var/ri-1.l-L1",
    "site": "Mt. Pleasant",
    "parsed_date": "unknown",
    "lat": 43.5975,
    "lon": -84.7423,
    "category": "outdoor"
  },
  {
    "title": "Watercolor Plein Air for Beginners",
    "date": "15 MAY",
    "time": "9:00 am - 12:00 pm",
    "location": "",
    "url": "https://meetmtp.com/event/watercolor-plein-air-for-beginners/",
    "site": "Mt. Pleasant",
    "parsed_date": "unknown",
    "lat": 43.5975,
    "lon": -84.7423,
    "category": "outdoor"
  },
  {
    "title": "Middle Michigan Development Corporation's Annual Meeting",
    "date": "08 MAY",
    "time": "11:30 am - 1:00 pm",
    "location": "",
    "url": "https://meetmtp.com/event/middle-michigan-development-corporations-annual-meeting/",
    "site": "Mt. Pleasant",
    "parsed_date": "unknown",
    "lat": 43.5975,
    "lon": -84.7423,
    "category": "outdoor"
  },
  {
    "title": "Kids and CultureBackyard Birding at the CMU Museum",
    "date": "09 MAY",
    "time": "10:00 am - 12:00 pm",
    "location": "",
    "url": "https://meetmtp.com/event/kids-and-culture/",
    "site": "Mt. Pleasant",
    "parsed_date": "unknown",
    "lat": 43.5975,
    "lon": -84.7423,
    "category": "educational"
  },
  {
    "title": "LIVE Virtual Author Talk: How to Robot-Proof Your Kids with Dr. Vivienne Ming",
    "date": "12 MAY",
    "time": "2:00 pm - 3:00 pm",
    "location": "",
    "url": "https://meetmtp.com/event/live-virtual-author-talk-how-to-robot-proof-your-kids-and-yourself-with-dr-vivienne-ming/",
    "site": "Mt. Pleasant",
    "parsed_date": "unknown",
    "lat": 43.5975,
    "lon": -84.7423,
    "category": "outdoor"
  },
  {
    "title": "Painting with Pupsin partnership with Humane Animal Treatment Society",
    "date": "12 MAY",
    "time": "3:00 pm - 5:00 pm",
    "location": "",
    "url": "https://meetmtp.com/event/painting-with-pups/",
    "site": "Mt. Pleasant",
    "parsed_date": "unknown",
    "lat": 43.5975,
    "lon": -84.7423,
    "category": "outdoor"
  },
  {
    "title": "Colored Pencil Drawing: Advanced (May)",
    "date": "04 MAY",
    "time": "6:00 pm - 8:00 pm",
    "location": "",
    "url": "https://meetmtp.com/event/colored-pencil-drawing-advanced-may/",
    "site": "Mt. Pleasant",
    "parsed_date": "unknown",
    "lat": 43.5975,
    "lon": -84.7423,
    "category": "outdoor"
  },
  {
    "title": "Introduction to Portrait Drawing",
    "date": "05 MAY",
    "time": "5:30 pm - 8:00 pm",
    "location": "",
    "url": "https://meetmtp.com/event/introduction-to-portrait-drawing/",
    "site": "Mt. Pleasant",
    "parsed_date": "unknown",
    "lat": 43.5975,
    "lon": -84.7423,
    "category": "outdoor"
  },
  {
    "title": "Birds on the Brink: Watercolor Studies",
    "date": "07 MAY",
    "time": "2:00 pm - 2:00 pm",
    "location": "",
    "url": "https://meetmtp.com/event/birds-on-the-brink-watercolor-studies/",
    "site": "Mt. Pleasant",
    "parsed_date": "unknown",
    "lat": 43.5975,
    "lon": -84.7423,
    "category": "outdoor"
  },
  {
    "title": "SDB Author EventAuthor Event- Kory Shrum",
    "date": "07 MAY",
    "time": "7:00 pm - 8:00 pm",
    "location": "",
    "url": "https://meetmtp.com/event/sdb-author-event/",
    "site": "Mt. Pleasant",
    "parsed_date": "unknown",
    "lat": 43.5975,
    "lon": -84.7423,
    "category": "outdoor"
  },
  {
    "title": "Legislative Breakfast",
    "date": "08 MAY",
    "time": "7:15 am - 9:00 am",
    "location": "",
    "url": "https://meetmtp.com/event/legislative-breakfast/",
    "site": "Mt. Pleasant",
    "parsed_date": "unknown",
    "lat": 43.5975,
    "lon": -84.7423,
    "category": "outdoor"
  },
  {
    "title": "May Lunch and Learn Social Media: The Good, The Bad, and The Ugly",
    "date": "14 MAY",
    "time": "12:30 pm - 1:30 pm",
    "location": "",
    "url": "https://meetmtp.com/event/may-lunch-and-learn-social-media-the-good-the-bad-and-the-ugly/",
    "site": "Mt. Pleasant",
    "parsed_date": "unknown",
    "lat": 43.5975,
    "lon": -84.7423,
    "category": "educational"
  },
  {
    "title": "The Care Games 2026The Care Store's 3rd Annual Fundraiser",
    "date": "14 MAY",
    "time": "5:30 pm - 7:00 pm",
    "location": "",
    "url": "https://meetmtp.com/event/the-care-games-2026-2/",
    "site": "Mt. Pleasant",
    "parsed_date": "unknown",
    "lat": 43.5975,
    "lon": -84.7423,
    "category": "outdoor"
  },
  {
    "title": "Club Create of Mid Michigan",
    "date": "14 MAY",
    "time": "5:30 pm - 7:00 pm",
    "location": "",
    "url": "https://meetmtp.com/event/club-create-of-mid-michigan/",
    "site": "Mt. Pleasant",
    "parsed_date": "unknown",
    "lat": 43.5975,
    "lon": -84.7423,
    "category": "outdoor"
  },
  {
    "title": "The Care Games 2026Fundraiser to benefit The Care Store",
    "date": "14 MAY",
    "time": "5:30 pm - 8:00 pm",
    "location": "",
    "url": "https://meetmtp.com/event/the-care-games-2026/",
    "site": "Mt. Pleasant",
    "parsed_date": "unknown",
    "lat": 43.5975,
    "lon": -84.7423,
    "category": "outdoor"
  },
  {
    "title": "Yarn Dyeing Workshop",
    "date": "16 MAY",
    "time": "11:00 am - 2:00 pm",
    "location": "",
    "url": "https://meetmtp.com/event/yarn-dyeing-workshop/",
    "site": "Mt. Pleasant",
    "parsed_date": "unknown",
    "lat": 43.5975,
    "lon": -84.7423,
    "category": "educational"
  },
  {
    "title": "Public Safety Expo",
    "date": "16 MAY",
    "time": "11:00 am - 2:00 pm",
    "location": "",
    "url": "https://meetmtp.com/event/public-safety-expo/",
    "site": "Mt. Pleasant",
    "parsed_date": "unknown",
    "lat": 43.5975,
    "lon": -84.7423,
    "category": "outdoor"
  },
  {
    "title": "Sew What! Patchwork Pockets",
    "date": "16 MAY",
    "time": "1:00 pm - 4:00 pm",
    "location": "",
    "url": "https://meetmtp.com/event/sew-what-patchwork-pockets-2/",
    "site": "Mt. Pleasant",
    "parsed_date": "unknown",
    "lat": 43.5975,
    "lon": -84.7423,
    "category": "outdoor"
  },
  {
    "title": "Sew What! Patchwork Pockets",
    "date": "16 MAY",
    "time": "1:00 pm - 4:00 pm",
    "location": "",
    "url": "https://meetmtp.com/event/sew-what-patchwork-pockets/",
    "site": "Mt. Pleasant",
    "parsed_date": "unknown",
    "lat": 43.5975,
    "lon": -84.7423,
    "category": "outdoor"
  },
  {
    "title": "Wine & Watercolors",
    "date": "16 MAY",
    "time": "6:00 pm - 8:30 pm",
    "location": "",
    "url": "https://meetmtp.com/event/wine-watercolors/",
    "site": "Mt. Pleasant",
    "parsed_date": "unknown",
    "lat": 43.5975,
    "lon": -84.7423,
    "category": "outdoor"
  },
  {
    "title": "Monster Truck ThrowdownCrystal Motor Speedway - May 17, 2026",
    "date": "17 MAY",
    "time": "11:00 am - 4:00 pm",
    "location": "",
    "url": "https://meetmtp.com/event/monster-truck-throwdown/",
    "site": "Mt. Pleasant",
    "parsed_date": "unknown",
    "lat": 43.5975,
    "lon": -84.7423,
    "category": "outdoor"
  },
  {
    "title": "Colored Pencil Drawing: Advanced (May)",
    "date": "18 MAY",
    "time": "6:00 pm - 8:00 pm",
    "location": "",
    "url": "https://meetmtp.com/event/colored-pencil-drawing-advanced-may/var/ri-2.l-L1",
    "site": "Mt. Pleasant",
    "parsed_date": "unknown",
    "lat": 43.5975,
    "lon": -84.7423,
    "category": "outdoor"
  },
  {
    "title": "Michigan Orchids in Watercolor",
    "date": "19 MAY",
    "time": "3:00 pm - 5:00 pm",
    "location": "",
    "url": "https://meetmtp.com/event/michigan-orchids-in-watercolor/var/ri-1.l-L1",
    "site": "Mt. Pleasant",
    "parsed_date": "unknown",
    "lat": 43.5975,
    "lon": -84.7423,
    "category": "outdoor"
  },
  {
    "title": "Introduction to Portrait Drawing",
    "date": "19 MAY",
    "time": "5:30 pm - 8:00 pm",
    "location": "",
    "url": "https://meetmtp.com/event/introduction-to-portrait-drawing/var/ri-2.l-L1",
    "site": "Mt. Pleasant",
    "parsed_date": "unknown",
    "lat": 43.5975,
    "lon": -84.7423,
    "category": "outdoor"
  },
  {
    "title": "Wee Wednesdays",
    "date": "20 MAY",
    "time": "10:00 am - 11:00 am",
    "location": "",
    "url": "https://meetmtp.com/event/wee-wednesdays-2/",
    "site": "Mt. Pleasant",
    "parsed_date": "unknown",
    "lat": 43.5975,
    "lon": -84.7423,
    "category": "outdoor"
  },
  {
    "title": "Birds on the Brink: Watercolor Studies",
    "date": "21 MAY",
    "time": "2:00 pm - 2:00 pm",
    "location": "",
    "url": "https://meetmtp.com/event/birds-on-the-brink-watercolor-studies/var/ri-2.l-L1",
    "site": "Mt. Pleasant",
    "parsed_date": "unknown",
    "lat": 43.5975,
    "lon": -84.7423,
    "category": "outdoor"
  },
  {
    "title": "Mini Masters",
    "date": "21 MAY",
    "time": "5:30 pm - 7:00 pm",
    "location": "",
    "url": "https://meetmtp.com/event/mini-masters-2/",
    "site": "Mt. Pleasant",
    "parsed_date": "unknown",
    "lat": 43.5975,
    "lon": -84.7423,
    "category": "outdoor"
  },
  {
    "title": "Alma Highland Festival and Games",
    "date": "22 MAY",
    "time": "All day",
    "location": "",
    "url": "https://meetmtp.com/event/alma-highland-festival-and-games/",
    "site": "Mt. Pleasant",
    "parsed_date": "unknown",
    "lat": 43.5975,
    "lon": -84.7423,
    "category": "festival"
  },
  {
    "title": "Figure Drawing Club",
    "date": "22 MAY",
    "time": "5:30 pm - 8:00 pm",
    "location": "",
    "url": "https://meetmtp.com/event/figure-drawing-club/",
    "site": "Mt. Pleasant",
    "parsed_date": "unknown",
    "lat": 43.5975,
    "lon": -84.7423,
    "category": "outdoor"
  },
  {
    "title": "Alma Highland Festival and Games",
    "date": "23 MAY",
    "time": "All day",
    "location": "",
    "url": "https://meetmtp.com/event/alma-highland-festival-and-games/var/ri-1.l-L1",
    "site": "Mt. Pleasant",
    "parsed_date": "unknown",
    "lat": 43.5975,
    "lon": -84.7423,
    "category": "festival"
  },
  {
    "title": "SDB Author EventAuthor Event- Allison Bartlett",
    "date": "23 MAY",
    "time": "10:00 am - 11:00 am",
    "location": "",
    "url": "https://meetmtp.com/event/sdb-author-event-2/",
    "site": "Mt. Pleasant",
    "parsed_date": "unknown",
    "lat": 43.5975,
    "lon": -84.7423,
    "category": "outdoor"
  },
  {
    "title": "Oil Painting Intensive: Floral Still Life",
    "date": "23 MAY",
    "time": "2:00 pm - 5:30 pm",
    "location": "",
    "url": "https://meetmtp.com/event/oil-painting-intensive-floral-still-life/",
    "site": "Mt. Pleasant",
    "parsed_date": "unknown",
    "lat": 43.5975,
    "lon": -84.7423,
    "category": "outdoor"
  },
  {
    "title": "Kansas",
    "date": "23 MAY",
    "time": "7:00 pm - 11:00 pm",
    "location": "",
    "url": "https://meetmtp.com/event/kansas/",
    "site": "Mt. Pleasant",
    "parsed_date": "unknown",
    "lat": 43.5975,
    "lon": -84.7423,
    "category": "outdoor"
  },
  {
    "title": "Alma Highland Festival and Games",
    "date": "24 MAY",
    "time": "All day",
    "location": "",
    "url": "https://meetmtp.com/event/alma-highland-festival-and-games/var/ri-2.l-L1",
    "site": "Mt. Pleasant",
    "parsed_date": "unknown",
    "lat": 43.5975,
    "lon": -84.7423,
    "category": "festival"
  },
  {
    "title": "Oil Painting Intensive: Floral Still Life",
    "date": "24 MAY",
    "time": "2:00 pm - 5:30 pm",
    "location": "",
    "url": "https://meetmtp.com/event/oil-painting-intensive-floral-still-life/var/ri-1.l-L1",
    "site": "Mt. Pleasant",
    "parsed_date": "unknown",
    "lat": 43.5975,
    "lon": -84.7423,
    "category": "outdoor"
  },
  {
    "title": "Colored Pencil Drawing: Advanced (May)",
    "date": "25 MAY",
    "time": "6:00 pm - 8:00 pm",
    "location": "",
    "url": "https://meetmtp.com/event/colored-pencil-drawing-advanced-may/var/ri-3.l-L1",
    "site": "Mt. Pleasant",
    "parsed_date": "unknown",
    "lat": 43.5975,
    "lon": -84.7423,
    "category": "outdoor"
  },
  {
    "title": "Introduction to Portrait Drawing",
    "date": "26 MAY",
    "time": "5:30 pm - 8:00 pm",
    "location": "",
    "url": "https://meetmtp.com/event/introduction-to-portrait-drawing/var/ri-3.l-L1",
    "site": "Mt. Pleasant",
    "parsed_date": "unknown",
    "lat": 43.5975,
    "lon": -84.7423,
    "category": "outdoor"
  },
  {
    "title": "Club Create of Mid Michigan",
    "date": "27 MAY",
    "time": "10:30 am - 12:00 pm",
    "location": "",
    "url": "https://meetmtp.com/event/club-create-of-mid-michigan-2/",
    "site": "Mt. Pleasant",
    "parsed_date": "unknown",
    "lat": 43.5975,
    "lon": -84.7423,
    "category": "outdoor"
  },
  {
    "title": "Alcohol Ink: Tulips",
    "date": "27 MAY",
    "time": "1:00 pm - 3:00 pm",
    "location": "",
    "url": "https://meetmtp.com/event/alcohol-ink-tulips/",
    "site": "Mt. Pleasant",
    "parsed_date": "unknown",
    "lat": 43.5975,
    "lon": -84.7423,
    "category": "outdoor"
  },
  {
    "title": "United for MomsCommunity-Wide Collection Drive",
    "date": "28 MAY",
    "time": "10:00 am - 2:00 pm",
    "location": "",
    "url": "https://meetmtp.com/event/united-for-moms/",
    "site": "Mt. Pleasant",
    "parsed_date": "unknown",
    "lat": 43.5975,
    "lon": -84.7423,
    "category": "outdoor"
  },
  {
    "title": "Birds on the Brink: Watercolor Studies",
    "date": "28 MAY",
    "time": "2:00 pm - 2:00 pm",
    "location": "",
    "url": "https://meetmtp.com/event/birds-on-the-brink-watercolor-studies/var/ri-3.l-L1",
    "site": "Mt. Pleasant",
    "parsed_date": "unknown",
    "lat": 43.5975,
    "lon": -84.7423,
    "category": "outdoor"
  },
  {
    "title": "Special Olympics Michigan State Summer Games",
    "date": "28 MAY",
    "time": "All day",
    "location": "",
    "url": "https://meetmtp.com/event/special-olympics-michigan-state-summer-games/",
    "site": "Mt. Pleasant",
    "parsed_date": "unknown",
    "lat": 43.5975,
    "lon": -84.7423,
    "category": "outdoor"
  },
  {
    "title": "Special Olympics Michigan State Summer Games",
    "date": "29 MAY",
    "time": "All day",
    "location": "",
    "url": "https://meetmtp.com/event/special-olympics-michigan-state-summer-games/var/ri-1.l-L1",
    "site": "Mt. Pleasant",
    "parsed_date": "unknown",
    "lat": 43.5975,
    "lon": -84.7423,
    "category": "outdoor"
  },
  {
    "title": "Junk Journaling: A Visual Diary of You",
    "date": "29 MAY",
    "time": "5:30 pm - 8:00 pm",
    "location": "",
    "url": "https://meetmtp.com/event/junk-journaling-a-visual-diary-of-you/",
    "site": "Mt. Pleasant",
    "parsed_date": "unknown",
    "lat": 43.5975,
    "lon": -84.7423,
    "category": "outdoor"
  },
  {
    "title": "Paint the Pavement",
    "date": "30 MAY",
    "time": "7:00 am - 1:00 pm",
    "location": "",
    "url": "https://meetmtp.com/event/paint-the-pavement/",
    "site": "Mt. Pleasant",
    "parsed_date": "unknown",
    "lat": 43.5975,
    "lon": -84.7423,
    "category": "outdoor"
  },
  {
    "title": "Special Olympics Michigan State Summer Games",
    "date": "30 MAY",
    "time": "All day",
    "location": "",
    "url": "https://meetmtp.com/event/special-olympics-michigan-state-summer-games/var/ri-2.l-L1",
    "site": "Mt. Pleasant",
    "parsed_date": "unknown",
    "lat": 43.5975,
    "lon": -84.7423,
    "category": "outdoor"
  },
  {
    "title": "Battle of the Creek Bands",
    "date": "May 15",
    "time": "All day",
    "location": "New Holland Brewing",
    "url": "https://www.battlecreekvisitors.org/event/battle-of-the-creek-bands/1166/",
    "site": "Battle Creek",
    "parsed_date": "2026-05-15",
    "lat": 42.3211,
    "lon": -85.1797,
    "category": "outdoor"
  },
  {
    "title": "Spring into the Arts",
    "date": "May 15",
    "time": "All day",
    "location": "Battle Creek, MI",
    "url": "https://www.battlecreekvisitors.org/event/spring-into-the-arts/1204/",
    "site": "Battle Creek",
    "parsed_date": "2026-05-15",
    "lat": 42.3211,
    "lon": -85.1797,
    "category": "outdoor"
  },
  {
    "title": "Memorial Day Parade",
    "date": "May 25",
    "time": "All day",
    "location": "Battle Creek, MI",
    "url": "https://www.battlecreekvisitors.org/event/memorial-day-parade/1250/",
    "site": "Battle Creek",
    "parsed_date": "2026-05-25",
    "lat": 42.3211,
    "lon": -85.1797,
    "category": "outdoor"
  },
  {
    "title": "Battle Creek Community Spelling Bee",
    "date": "Jun 06",
    "time": "All day",
    "location": "Battle Creek, MI",
    "url": "https://www.battlecreekvisitors.org/event/battle-creek-community-spelling-bee/1201/",
    "site": "Battle Creek",
    "parsed_date": "2026-06-06",
    "lat": 42.3211,
    "lon": -85.1797,
    "category": "outdoor"
  },
  {
    "title": "TrailBlaze Family Adventure Day",
    "date": "Jun 06",
    "time": "All day",
    "location": "Calhoun County Trailway",
    "url": "https://www.battlecreekvisitors.org/event/trailblaze-family-adventure-day/1180/",
    "site": "Battle Creek",
    "parsed_date": "2026-06-06",
    "lat": 42.3211,
    "lon": -85.1797,
    "category": "nature"
  },
  {
    "title": "Corks & Crafts Tasting Event",
    "date": "May 09",
    "time": "All day",
    "location": "Battle Creek, MI",
    "url": "https://www.battlecreekvisitors.org/event/corks-%26-crafts-tasting-event/1130/",
    "site": "Battle Creek",
    "parsed_date": "2026-05-09",
    "lat": 42.3211,
    "lon": -85.1797,
    "category": "outdoor"
  },
  {
    "title": "Corks & Crafts Tasting Event",
    "date": "May 09",
    "time": "All day",
    "location": "Battle Creek, MI",
    "url": "https://www.battlecreekvisitors.org/event/corks-%26-crafts-tasting-event/1169/",
    "site": "Battle Creek",
    "parsed_date": "2026-05-09",
    "lat": 42.3211,
    "lon": -85.1797,
    "category": "outdoor"
  },
  {
    "title": "Marshall Museums Dollar Day",
    "date": "May 09",
    "time": "All day",
    "location": "Battle Creek, MI",
    "url": "https://www.battlecreekvisitors.org/event/marshall-museums-dollar-day/1245/",
    "site": "Battle Creek",
    "parsed_date": "2026-05-09",
    "lat": 42.3211,
    "lon": -85.1797,
    "category": "educational"
  },
  {
    "title": "Mother's Day at Binder Park Zoo",
    "date": "May 10",
    "time": "All day",
    "location": "Binder Park Zoo",
    "url": "https://www.battlecreekvisitors.org/event/mother%e2%80%99s-day-at-binder-park-zoo/1188/",
    "site": "Battle Creek",
    "parsed_date": "2026-05-10",
    "lat": 42.3211,
    "lon": -85.1797,
    "category": "nature"
  },
  {
    "title": "Wednesday Night Cruise-ins",
    "date": "May 13",
    "time": "All day",
    "location": "Battle Creek, MI",
    "url": "https://www.battlecreekvisitors.org/event/wednesday-night-cruise-ins/1129/",
    "site": "Battle Creek",
    "parsed_date": "2026-05-13",
    "lat": 42.3211,
    "lon": -85.1797,
    "category": "outdoor"
  },
  {
    "title": "Brooks Nature Area: World Migratory Bird Hike Day",
    "date": "May 09",
    "time": "All day",
    "location": "Brooks Nature Area",
    "url": "https://www.battlecreekvisitors.org/event/brooks-nature-area%3a-world-migratory-bird-hike-day/1246/",
    "site": "Battle Creek",
    "parsed_date": "2026-05-09",
    "lat": 42.3211,
    "lon": -85.1797,
    "category": "nature"
  },
  {
    "title": "Upheaval Festival 2026",
    "date": "July 17, 2026",
    "time": "All day",
    "location": "Belknap Park",
    "url": "https://www.experiencegr.com/event/upheaval-festival-2026/96783/",
    "site": "Grand Rapids",
    "parsed_date": "2026-07-17",
    "lat": 42.9634,
    "lon": -85.6681,
    "category": "festival"
  },
  {
    "title": "Breakaway Music Festival 2026",
    "date": "August 14, 2026",
    "time": "All day",
    "location": "Grand Rapids, MI",
    "url": "https://www.experiencegr.com/event/breakaway-music-festival-2026/96782/",
    "site": "Grand Rapids",
    "parsed_date": "2026-08-14",
    "lat": 42.9626,
    "lon": -85.6669,
    "category": "festival"
  },
  {
    "title": "Burning Foot Beer Festival 2026",
    "date": "August 29, 2026",
    "time": "All day",
    "location": "Heritage Landing Park",
    "url": "https://www.experiencegr.com/event/burning-foot-beer-festival-2026/96385/",
    "site": "Grand Rapids",
    "parsed_date": "2026-08-29",
    "lat": 42.9557,
    "lon": -85.6684,
    "category": "festival"
  },
  {
    "title": "Pitbull",
    "date": "September 10, 2026",
    "time": "All day",
    "location": "Acrisure Amphitheater",
    "url": "https://www.experiencegr.com/event/pitbull/96465/",
    "site": "Grand Rapids",
    "parsed_date": "2026-09-10",
    "lat": 42.9634,
    "lon": -85.6342,
    "category": "outdoor"
  },
  {
    "title": "Cider Week GR",
    "date": "May 8, 2026",
    "time": "All day",
    "location": "Grand Rapids, MI",
    "url": "https://www.experiencegr.com/event/cider-week-gr/95393/",
    "site": "Grand Rapids",
    "parsed_date": "2026-05-08",
    "lat": 42.9626,
    "lon": -85.6669,
    "category": "outdoor"
  },
  {
    "title": "The Grand Rapids Lantern Festival",
    "date": "May 8, 2026",
    "time": "All day",
    "location": "John Ball Zoo",
    "url": "https://www.experiencegr.com/event/the-grand-rapids-lantern-festival/96053/",
    "site": "Grand Rapids",
    "parsed_date": "2026-05-08",
    "lat": 42.9626,
    "lon": -85.6669,
    "category": "festival"
  },
  {
    "title": "Tulip Time Festival 2026",
    "date": "May 8, 2026",
    "time": "All day",
    "location": "Tulip Time Festival",
    "url": "https://www.experiencegr.com/event/tulip-time-festival-2026/88781/",
    "site": "Grand Rapids",
    "parsed_date": "2026-05-08",
    "lat": 42.9634,
    "lon": -85.6681,
    "category": "festival"
  },
  {
    "title": "Amway River Bank Run 2026",
    "date": "May 9, 2026",
    "time": "All day",
    "location": "DeVos Place",
    "url": "https://www.experiencegr.com/event/amway-river-bank-run-2026/96727/",
    "site": "Grand Rapids",
    "parsed_date": "2026-05-09",
    "lat": 42.9634,
    "lon": -85.6681,
    "category": "sport"
  },
  {
    "title": "Michigan Cider Fest",
    "date": "May 16, 2026",
    "time": "All day",
    "location": "Grand Rapids, MI",
    "url": "https://www.experiencegr.com/event/michigan-cider-fest/93529/",
    "site": "Grand Rapids",
    "parsed_date": "2026-05-16",
    "lat": 42.9626,
    "lon": -85.6669,
    "category": "outdoor"
  },
  {
    "title": "The Gilmore Piano Festival",
    "date": "May 20, 2026",
    "time": "All day",
    "location": "Grand Rapids, MI",
    "url": "https://www.experiencegr.com/event/the-gilmore-piano-festival/97811/",
    "site": "Grand Rapids",
    "parsed_date": "2026-05-20",
    "lat": 42.9626,
    "lon": -85.6669,
    "category": "festival"
  },
  {
    "title": "Russell Dickerson",
    "date": "May 30, 2026",
    "time": "All day",
    "location": "Acrisure Amphitheater",
    "url": "https://www.experiencegr.com/event/russell-dickerson/93608/",
    "site": "Grand Rapids",
    "parsed_date": "2026-05-30",
    "lat": 42.9634,
    "lon": -85.6342,
    "category": "outdoor"
  },
  {
    "title": "Grand Rapids Asian-Pacific Festival 2026",
    "date": "June 12, 2026",
    "time": "All day",
    "location": "Grand Rapids, MI",
    "url": "https://www.experiencegr.com/event/grand-rapids-asian-pacific-festival-2026/96344/",
    "site": "Grand Rapids",
    "parsed_date": "2026-06-12",
    "lat": 42.9626,
    "lon": -85.6669,
    "category": "festival"
  },
  {
    "title": "Justice 4 All Juneteenth Jam",
    "date": "June 19, 2026",
    "time": "All day",
    "location": "Grand Rapids, MI",
    "url": "https://www.experiencegr.com/event/justice-4-all-juneteenth-jam/96345/",
    "site": "Grand Rapids",
    "parsed_date": "2026-06-19",
    "lat": 42.9626,
    "lon": -85.6669,
    "category": "outdoor"
  },
  {
    "title": "Grand Rapids Pride Festival",
    "date": "June 20, 2026",
    "time": "All day",
    "location": "Grand Rapids, MI",
    "url": "https://www.experiencegr.com/event/grand-rapids-pride-festival/97412/",
    "site": "Grand Rapids",
    "parsed_date": "2026-06-20",
    "lat": 42.9626,
    "lon": -85.6669,
    "category": "festival"
  },
  {
    "title": "Grand Rapids Fireworks",
    "date": "July 4, 2026",
    "time": "All day",
    "location": "Grand Rapids, MI",
    "url": "https://www.experiencegr.com/event/grand-rapids-fireworks/96372/",
    "site": "Grand Rapids",
    "parsed_date": "2026-07-04",
    "lat": 42.9626,
    "lon": -85.6669,
    "category": "outdoor"
  }
]